[{"geometry":{"type":"Point","coordinates":[41.017,43]},"type":"Feature","properties":{"wikipedia":"Sukhumi","city":"Sukhumi"},"id":"Sukhumi"},{"geometry":{"type":"Point","coordinates":[37.383,37.067]},"type":"Feature","properties":{"wikipedia":"Gaziantep","city":"Gaziantep"},"id":"Gaziantep"},{"geometry":{"type":"Point","coordinates":[36.317,49.917]},"type":"Feature","properties":{"wikipedia":"Kharkiv","city":"Kharkiv"},"id":"Kharkiv"},{"geometry":{"type":"Point","coordinates":[36.283,33.5]},"type":"Feature","properties":{"wikipedia":"Damascus","city":"Damascus"},"id":"Damascus"},{"geometry":{"type":"Point","coordinates":[35.5,33.883]},"type":"Feature","properties":{"wikipedia":"Beirut","city":"Beirut"},"id":"Beirut"},{"geometry":{"type":"Point","coordinates":[35.317,37]},"type":"Feature","properties":{"wikipedia":"Adana","city":"Adana"},"id":"Adana"},{"geometry":{"type":"Point","coordinates":[34.633,36.8]},"type":"Feature","properties":{"wikipedia":"Mersin","city":"Mersin"},"id":"Mersin"},{"geometry":{"type":"Point","coordinates":[34.1,44.95]},"type":"Feature","properties":{"wikipedia":"Simferopol","city":"Simferopol"},"id":"Simferopol"},{"geometry":{"type":"Point","coordinates":[33.35,35.167]},"type":"Feature","properties":{"wikipedia":"Nicosia","city":"Nicosia"},"id":"Nicosia"},{"geometry":{"type":"Point","coordinates":[32.833,39.867]},"type":"Feature","properties":{"wikipedia":"Ankara","city":"Ankara"},"id":"Ankara"},{"geometry":{"type":"Point","coordinates":[32.483,37.867]},"type":"Feature","properties":{"wikipedia":"Konya","city":"Konya"},"id":"Konya"},{"geometry":{"type":"Point","coordinates":[30.733,46.467]},"type":"Feature","properties":{"wikipedia":"Odessa","city":"Odessa"},"id":"Odessa"},{"geometry":{"type":"Point","coordinates":[30.517,50.45]},"type":"Feature","properties":{"wikipedia":"Kiev","city":"Kiev"},"id":"Kiev"},{"geometry":{"type":"Point","coordinates":[29.633,46.85]},"type":"Feature","properties":{"wikipedia":"Tiraspol","city":"Tiraspol"},"id":"Tiraspol"},{"geometry":{"type":"Point","coordinates":[29.067,40.183]},"type":"Feature","properties":{"wikipedia":"Bursa","city":"Bursa"},"id":"Bursa"},{"geometry":{"type":"Point","coordinates":[28.967,41]},"type":"Feature","properties":{"wikipedia":"Istanbul","city":"Istanbul"},"id":"Istanbul"},{"geometry":{"type":"Point","coordinates":[28.867,47]},"type":"Feature","properties":{"wikipedia":"Chi%C5%9Fin%C4%83u","city":"Chi%C5%9Fin%C4%83u"},"id":"Chi%C5%9Fin%C4%83u"},{"geometry":{"type":"Point","coordinates":[27.567,53.9]},"type":"Feature","properties":{"wikipedia":"Minsk","city":"Minsk"},"id":"Minsk"},{"geometry":{"type":"Point","coordinates":[27.15,38.433]},"type":"Feature","properties":{"wikipedia":"%C4%B0zmir","city":"%C4%B0zmir"},"id":"%C4%B0zmir"},{"geometry":{"type":"Point","coordinates":[26.1,44.433]},"type":"Feature","properties":{"wikipedia":"Bucharest","city":"Bucharest"},"id":"Bucharest"},{"geometry":{"type":"Point","coordinates":[24.017,49.85]},"type":"Feature","properties":{"wikipedia":"Lviv","city":"Lviv"},"id":"Lviv"},{"geometry":{"type":"Point","coordinates":[23.717,37.967]},"type":"Feature","properties":{"wikipedia":"Athens","city":"Athens"},"id":"Athens"},{"geometry":{"type":"Point","coordinates":[23.333,42.7]},"type":"Feature","properties":{"wikipedia":"Sofia","city":"Sofia"},"id":"Sofia"},{"geometry":{"type":"Point","coordinates":[22.95,40.633]},"type":"Feature","properties":{"wikipedia":"Thessaloniki","city":"Thessaloniki"},"id":"Thessaloniki"},{"geometry":{"type":"Point","coordinates":[21.433,42]},"type":"Feature","properties":{"wikipedia":"Skopje","city":"Skopje"},"id":"Skopje"},{"geometry":{"type":"Point","coordinates":[21.167,42.667]},"type":"Feature","properties":{"wikipedia":"Pristina","city":"Pristina"},"id":"Pristina"},{"geometry":{"type":"Point","coordinates":[21,52.233]},"type":"Feature","properties":{"wikipedia":"Warsaw","city":"Warsaw"},"id":"Warsaw"},{"geometry":{"type":"Point","coordinates":[20.45,44.817]},"type":"Feature","properties":{"wikipedia":"Belgrade","city":"Belgrade"},"id":"Belgrade"},{"geometry":{"type":"Point","coordinates":[19.933,50.05]},"type":"Feature","properties":{"wikipedia":"Krak%C3%B3w","city":"Krak%C3%B3w"},"id":"Krak%C3%B3w"},{"geometry":{"type":"Point","coordinates":[19.817,41.317]},"type":"Feature","properties":{"wikipedia":"Tirana","city":"Tirana"},"id":"Tirana"},{"geometry":{"type":"Point","coordinates":[19.267,42.467]},"type":"Feature","properties":{"wikipedia":"Podgorica","city":"Podgorica"},"id":"Podgorica"},{"geometry":{"type":"Point","coordinates":[19.05,47.467]},"type":"Feature","properties":{"wikipedia":"Budapest","city":"Budapest"},"id":"Budapest"},{"geometry":{"type":"Point","coordinates":[18.35,43.85]},"type":"Feature","properties":{"wikipedia":"Sarajevo","city":"Sarajevo"},"id":"Sarajevo"},{"geometry":{"type":"Point","coordinates":[17.1,48.133]},"type":"Feature","properties":{"wikipedia":"Bratislava","city":"Bratislava"},"id":"Bratislava"},{"geometry":{"type":"Point","coordinates":[16.433,43.5]},"type":"Feature","properties":{"wikipedia":"Split_(city)","city":"Split (city)"},"id":"Split (city)"},{"geometry":{"type":"Point","coordinates":[16.367,48.2]},"type":"Feature","properties":{"wikipedia":"Vienna","city":"Vienna"},"id":"Vienna"},{"geometry":{"type":"Point","coordinates":[15.983,45.817]},"type":"Feature","properties":{"wikipedia":"Zagreb","city":"Zagreb"},"id":"Zagreb"},{"geometry":{"type":"Point","coordinates":[15.433,47.067]},"type":"Feature","properties":{"wikipedia":"Graz","city":"Graz"},"id":"Graz"},{"geometry":{"type":"Point","coordinates":[14.5,35.9]},"type":"Feature","properties":{"wikipedia":"Valletta","city":"Valletta"},"id":"Valletta"},{"geometry":{"type":"Point","coordinates":[14.5,46.067]},"type":"Feature","properties":{"wikipedia":"Ljubljana","city":"Ljubljana"},"id":"Ljubljana"},{"geometry":{"type":"Point","coordinates":[14.45,35.883]},"type":"Feature","properties":{"wikipedia":"Birkirkara","city":"Birkirkara"},"id":"Birkirkara"},{"geometry":{"type":"Point","coordinates":[14.417,50.083]},"type":"Feature","properties":{"wikipedia":"Prague","city":"Prague"},"id":"Prague"},{"geometry":{"type":"Point","coordinates":[14.283,48.3]},"type":"Feature","properties":{"wikipedia":"Linz","city":"Linz"},"id":"Linz"},{"geometry":{"type":"Point","coordinates":[14.25,40.833]},"type":"Feature","properties":{"wikipedia":"Naples","city":"Naples"},"id":"Naples"},{"geometry":{"type":"Point","coordinates":[13.733,51.05]},"type":"Feature","properties":{"wikipedia":"Dresden","city":"Dresden"},"id":"Dresden"},{"geometry":{"type":"Point","coordinates":[13.417,52.517]},"type":"Feature","properties":{"wikipedia":"Berlin","city":"Berlin"},"id":"Berlin"},{"geometry":{"type":"Point","coordinates":[13.033,47.8]},"type":"Feature","properties":{"wikipedia":"Salzburg","city":"Salzburg"},"id":"Salzburg"},{"geometry":{"type":"Point","coordinates":[12.5,41.9]},"type":"Feature","properties":{"wikipedia":"Rome","city":"Rome"},"id":"Rome"},{"geometry":{"type":"Point","coordinates":[12.45,41.9]},"type":"Feature","properties":{"wikipedia":"Vatican_City","city":"Vatican City"},"id":"Vatican City"},{"geometry":{"type":"Point","coordinates":[12.433,43.933]},"type":"Feature","properties":{"wikipedia":"City_of_San_Marino","city":"City of San Marino"},"id":"City of San Marino"},{"geometry":{"type":"Point","coordinates":[12.383,51.333]},"type":"Feature","properties":{"wikipedia":"Leipzig","city":"Leipzig"},"id":"Leipzig"},{"geometry":{"type":"Point","coordinates":[11.567,48.133]},"type":"Feature","properties":{"wikipedia":"Munich","city":"Munich"},"id":"Munich"},{"geometry":{"type":"Point","coordinates":[11.383,47.267]},"type":"Feature","properties":{"wikipedia":"Innsbruck","city":"Innsbruck"},"id":"Innsbruck"},{"geometry":{"type":"Point","coordinates":[10.167,36.8]},"type":"Feature","properties":{"wikipedia":"Tunis","city":"Tunis"},"id":"Tunis"},{"geometry":{"type":"Point","coordinates":[9.983,53.583]},"type":"Feature","properties":{"wikipedia":"Hamburg","city":"Hamburg"},"id":"Hamburg"},{"geometry":{"type":"Point","coordinates":[9.717,52.367]},"type":"Feature","properties":{"wikipedia":"Hanover","city":"Hanover"},"id":"Hanover"},{"geometry":{"type":"Point","coordinates":[9.517,47.133]},"type":"Feature","properties":{"wikipedia":"Vaduz","city":"Vaduz"},"id":"Vaduz"},{"geometry":{"type":"Point","coordinates":[9.183,45.467]},"type":"Feature","properties":{"wikipedia":"Milan","city":"Milan"},"id":"Milan"},{"geometry":{"type":"Point","coordinates":[9.167,48.767]},"type":"Feature","properties":{"wikipedia":"Stuttgart","city":"Stuttgart"},"id":"Stuttgart"},{"geometry":{"type":"Point","coordinates":[8.683,50.1]},"type":"Feature","properties":{"wikipedia":"Frankfurt","city":"Frankfurt"},"id":"Frankfurt"},{"geometry":{"type":"Point","coordinates":[8.55,47.367]},"type":"Feature","properties":{"wikipedia":"Z%C3%BCrich","city":"Z%C3%BCrich"},"id":"Z%C3%BCrich"},{"geometry":{"type":"Point","coordinates":[7.75,48.583]},"type":"Feature","properties":{"wikipedia":"Strasbourg","city":"Strasbourg"},"id":"Strasbourg"},{"geometry":{"type":"Point","coordinates":[7.7,45.067]},"type":"Feature","properties":{"wikipedia":"Turin","city":"Turin"},"id":"Turin"},{"geometry":{"type":"Point","coordinates":[7.45,46.95]},"type":"Feature","properties":{"wikipedia":"Bern","city":"Bern"},"id":"Bern"},{"geometry":{"type":"Point","coordinates":[7.4,43.733]},"type":"Feature","properties":{"wikipedia":"Monaco","city":"Monaco"},"id":"Monaco"},{"geometry":{"type":"Point","coordinates":[7.267,43.7]},"type":"Feature","properties":{"wikipedia":"Nice","city":"Nice"},"id":"Nice"},{"geometry":{"type":"Point","coordinates":[7,43.55]},"type":"Feature","properties":{"wikipedia":"Cannes","city":"Cannes"},"id":"Cannes"},{"geometry":{"type":"Point","coordinates":[6.967,50.95]},"type":"Feature","properties":{"wikipedia":"Cologne","city":"Cologne"},"id":"Cologne"},{"geometry":{"type":"Point","coordinates":[6.783,51.233]},"type":"Feature","properties":{"wikipedia":"D%C3%BCsseldorf","city":"D%C3%BCsseldorf"},"id":"D%C3%BCsseldorf"},{"geometry":{"type":"Point","coordinates":[6.15,46.2]},"type":"Feature","properties":{"wikipedia":"Geneva","city":"Geneva"},"id":"Geneva"},{"geometry":{"type":"Point","coordinates":[6.117,49.6]},"type":"Feature","properties":{"wikipedia":"Luxembourg_(city)","city":"Luxembourg (city)"},"id":"Luxembourg (city)"},{"geometry":{"type":"Point","coordinates":[5.367,43.3]},"type":"Feature","properties":{"wikipedia":"Marseille","city":"Marseille"},"id":"Marseille"},{"geometry":{"type":"Point","coordinates":[4.883,52.367]},"type":"Feature","properties":{"wikipedia":"Amsterdam","city":"Amsterdam"},"id":"Amsterdam"},{"geometry":{"type":"Point","coordinates":[4.833,45.767]},"type":"Feature","properties":{"wikipedia":"Lyon","city":"Lyon"},"id":"Lyon"},{"geometry":{"type":"Point","coordinates":[4.467,51.933]},"type":"Feature","properties":{"wikipedia":"Rotterdam","city":"Rotterdam"},"id":"Rotterdam"},{"geometry":{"type":"Point","coordinates":[4.4,51.217]},"type":"Feature","properties":{"wikipedia":"Antwerp","city":"Antwerp"},"id":"Antwerp"},{"geometry":{"type":"Point","coordinates":[4.35,50.833]},"type":"Feature","properties":{"wikipedia":"Brussels","city":"Brussels"},"id":"Brussels"},{"geometry":{"type":"Point","coordinates":[4.3,52.067]},"type":"Feature","properties":{"wikipedia":"The_Hague","city":"The Hague"},"id":"The Hague"},{"geometry":{"type":"Point","coordinates":[3.217,36.7]},"type":"Feature","properties":{"wikipedia":"Algiers","city":"Algiers"},"id":"Algiers"},{"geometry":{"type":"Point","coordinates":[2.65,39.567]},"type":"Feature","properties":{"wikipedia":"Palma,_Majorca","city":"Palma"},"id":"Palma"},{"geometry":{"type":"Point","coordinates":[2.333,48.867]},"type":"Feature","properties":{"wikipedia":"Paris","city":"Paris"},"id":"Paris"},{"geometry":{"type":"Point","coordinates":[2.183,41.383]},"type":"Feature","properties":{"wikipedia":"Barcelona","city":"Barcelona"},"id":"Barcelona"},{"geometry":{"type":"Point","coordinates":[1.717,39.633]},"type":"Feature","properties":{"wikipedia":"Ibiza","city":"Ibiza"},"id":"Ibiza"},{"geometry":{"type":"Point","coordinates":[1.5,42.5]},"type":"Feature","properties":{"wikipedia":"Andorra_la_Vella","city":"Andorra la Vella"},"id":"Andorra la Vella"},{"geometry":{"type":"Point","coordinates":[1.433,43.6]},"type":"Feature","properties":{"wikipedia":"Toulouse","city":"Toulouse"},"id":"Toulouse"},{"geometry":{"type":"Point","coordinates":[0,51.467]},"type":"Feature","properties":{"wikipedia":"Greenwich","city":"Greenwich"},"id":"Greenwich"},{"geometry":{"type":"Point","coordinates":[-0.117,51.5]},"type":"Feature","properties":{"wikipedia":"London","city":"London"},"id":"London"},{"geometry":{"type":"Point","coordinates":[-0.367,39.483]},"type":"Feature","properties":{"wikipedia":"Valencia,_Spain","city":"Valencia"},"id":"Valencia"},{"geometry":{"type":"Point","coordinates":[-1.55,47.217]},"type":"Feature","properties":{"wikipedia":"Nantes","city":"Nantes"},"id":"Nantes"},{"geometry":{"type":"Point","coordinates":[-1.55,53.8]},"type":"Feature","properties":{"wikipedia":"Leeds","city":"Leeds"},"id":"Leeds"},{"geometry":{"type":"Point","coordinates":[-1.883,52.483]},"type":"Feature","properties":{"wikipedia":"Birmingham","city":"Birmingham"},"id":"Birmingham"},{"geometry":{"type":"Point","coordinates":[-2.233,53.467]},"type":"Feature","properties":{"wikipedia":"Manchester","city":"Manchester"},"id":"Manchester"},{"geometry":{"type":"Point","coordinates":[-2.917,43.25]},"type":"Feature","properties":{"wikipedia":"Bilbao","city":"Bilbao"},"id":"Bilbao"},{"geometry":{"type":"Point","coordinates":[-2.983,53.4]},"type":"Feature","properties":{"wikipedia":"Liverpool","city":"Liverpool"},"id":"Liverpool"},{"geometry":{"type":"Point","coordinates":[-3.183,51.483]},"type":"Feature","properties":{"wikipedia":"Cardiff","city":"Cardiff"},"id":"Cardiff"},{"geometry":{"type":"Point","coordinates":[-3.683,40.4]},"type":"Feature","properties":{"wikipedia":"Madrid","city":"Madrid"},"id":"Madrid"},{"geometry":{"type":"Point","coordinates":[-4.417,36.717]},"type":"Feature","properties":{"wikipedia":"M%C3%A1laga","city":"M%C3%A1laga"},"id":"M%C3%A1laga"},{"geometry":{"type":"Point","coordinates":[-4.483,54.133]},"type":"Feature","properties":{"wikipedia":"Douglas,_Isle_of_Man","city":"Douglas"},"id":"Douglas"},{"geometry":{"type":"Point","coordinates":[-5.35,36.133]},"type":"Feature","properties":{"wikipedia":"Gibraltar","city":"Gibraltar"},"id":"Gibraltar"},{"geometry":{"type":"Point","coordinates":[-5.983,37.367]},"type":"Feature","properties":{"wikipedia":"Seville","city":"Seville"},"id":"Seville"},{"geometry":{"type":"Point","coordinates":[-6.267,53.333]},"type":"Feature","properties":{"wikipedia":"Dublin","city":"Dublin"},"id":"Dublin"},{"geometry":{"type":"Point","coordinates":[-6.833,34.033]},"type":"Feature","properties":{"wikipedia":"Rabat","city":"Rabat"},"id":"Rabat"},{"geometry":{"type":"Point","coordinates":[-7.583,33.533]},"type":"Feature","properties":{"wikipedia":"Casablanca","city":"Casablanca"},"id":"Casablanca"},{"geometry":{"type":"Point","coordinates":[-8.467,51.883]},"type":"Feature","properties":{"wikipedia":"Cork_(city)","city":"Cork (city)"},"id":"Cork (city)"},{"geometry":{"type":"Point","coordinates":[-8.633,41.15]},"type":"Feature","properties":{"wikipedia":"Porto","city":"Porto"},"id":"Porto"},{"geometry":{"type":"Point","coordinates":[-9.183,38.7]},"type":"Feature","properties":{"wikipedia":"Lisbon","city":"Lisbon"},"id":"Lisbon"}]