{"type":"FeatureCollection","features":[{"geometry":{"type":"Point","coordinates":[52.863,7.69]},"type":"Feature","id":"node/4460746083","properties":{"name":"Werlte","wealth":5,"population":25000,"neighborhoodDensity":3,"city3s":0,"city4s":0,"city5s":1,"citySprawl":1,"ringUnits":{"inner":1,"middle":0,"outer":0}}},{"geometry":{"type":"Point","coordinates":[40.713,19.97]},"type":"Feature","id":"node/4365580967","properties":{"name":"Berat","is_in":"Albania","ele":"58","country":"Albania","region":"The Balkans","wealth":1,"population":50000,"neighborhoodDensity":1,"city3s":0,"city4s":1,"city5s":0,"citySprawl":2,"ringUnits":{"inner":1,"middle":0,"outer":0}}},{"geometry":{"type":"Point","coordinates":[40.713,19.97]},"type":"Feature","id":"node/4365580946","properties":{"name":"Berat","is_in":"Albania","ele":"58","country":"Albania","region":"The Balkans","wealth":1,"population":50000,"neighborhoodDensity":3,"city3s":0,"city4s":0,"city5s":2,"citySprawl":2,"ringUnits":{"inner":2,"middle":0,"outer":0}}},{"geometry":{"type":"Point","coordinates":[36.213,5.41]},"type":"Feature","id":"node/4306315224","properties":{"name":"Sétif","is_in":"Algeria","country":"Algeria","region":"North Africa","wealth":1,"population":104847,"neighborhoodDensity":1,"city3s":1,"city4s":0,"city5s":0,"citySprawl":3,"ringUnits":{"inner":1,"middle":0,"outer":0}}},{"geometry":{"type":"Point","coordinates":[48.513,32.27]},"type":"Feature","id":"node/4126283179","properties":{"name":"Kropyvnytskyi","wealth":1,"population":90774,"neighborhoodDensity":1,"city3s":0,"city4s":1,"city5s":1,"citySprawl":1,"ringUnits":{"inner":2,"middle":0,"outer":0}}},{"geometry":{"type":"Point","coordinates":[43.363,17.83]},"type":"Feature","id":"node/3985698573","properties":{"name":"Mostar","wealth":4,"population":50000,"neighborhoodDensity":2,"city3s":0,"city4s":0,"city5s":2,"citySprawl":1,"ringUnits":{"inner":2,"middle":0,"outer":0}}},{"geometry":{"type":"Point","coordinates":[51.213,16.17]},"type":"Feature","id":"node/3952721523","properties":{"name":"Legnica","wealth":5,"population":50694,"neighborhoodDensity":3,"city3s":0,"city4s":0,"city5s":2,"citySprawl":1,"ringUnits":{"inner":2,"middle":0,"outer":0}}},{"geometry":{"type":"Point","coordinates":[52.238,6.91]},"type":"Feature","id":"node/3836540471","properties":{"name":"Enschede","wealth":5,"population":69003,"neighborhoodDensity":2,"city3s":0,"city4s":0,"city5s":2,"citySprawl":1,"ringUnits":{"inner":2,"middle":0,"outer":0}}},{"geometry":{"type":"Point","coordinates":[36.688,-6.13]},"type":"Feature","id":"node/3763482580","properties":{"name":"Jerez","ele":"56","wealth":5,"population":84604,"neighborhoodDensity":2,"city3s":0,"city4s":0,"city5s":3,"citySprawl":1,"ringUnits":{"inner":3,"middle":0,"outer":0}}},{"geometry":{"type":"Point","coordinates":[50.513,30.81]},"type":"Feature","id":"node/3673183717","properties":{"name":"Brovary","wealth":3,"population":50218,"neighborhoodDensity":3,"city3s":0,"city4s":0,"city5s":2,"citySprawl":1,"ringUnits":{"inner":2,"middle":0,"outer":0}}},{"geometry":{"type":"Point","coordinates":[52.413,-1.51]},"type":"Feature","id":"node/3646667491","properties":{"name":"Coventry","is_in":"United Kingdom","country":"United Kingdom","region":"United Kingdom","wealth":4,"population":111969,"neighborhoodDensity":3,"city3s":0,"city4s":0,"city5s":4,"citySprawl":1,"ringUnits":{"inner":4,"middle":0,"outer":0}}},{"geometry":{"type":"Point","coordinates":[52.638,4.77]},"type":"Feature","id":"node/3474142743","properties":{"name":"Alkmaar","is_in":"The Netherlands","country":"The Netherlands","region":"Low Countries","wealth":4,"population":52482,"neighborhoodDensity":3,"city3s":0,"city4s":0,"city5s":2,"citySprawl":1,"ringUnits":{"inner":2,"middle":0,"outer":0}}},{"geometry":{"type":"Point","coordinates":[53.363,-6.25]},"type":"Feature","id":"node/3473474851","properties":{"name":"Dublin","is_in":"Ireland","ele":"20","country":"Ireland","region":"United Kingdom","wealth":5,"population":165273,"neighborhoodDensity":1,"city3s":1,"city4s":1,"city5s":0,"citySprawl":3,"ringUnits":{"inner":2,"middle":0,"outer":0}}},{"geometry":{"type":"Point","coordinates":[35.413,0.15]},"type":"Feature","id":"node/3458610624","properties":{"name":"Mascara","is_in":"Algeria","country":"Algeria","region":"North Africa","wealth":1,"population":52964,"neighborhoodDensity":3,"city3s":0,"city4s":0,"city5s":2,"citySprawl":1,"ringUnits":{"inner":2,"middle":0,"outer":0}}},{"geometry":{"type":"Point","coordinates":[52.263,6.17]},"type":"Feature","id":"node/3247433861","properties":{"name":"Deventer","is_in":"The Netherlands","country":"The Netherlands","region":"Low Countries","wealth":4,"population":50000,"neighborhoodDensity":3,"city3s":0,"city4s":0,"city5s":2,"citySprawl":3,"ringUnits":{"inner":2,"middle":0,"outer":0}}},{"geometry":{"type":"Point","coordinates":[43.338,-1.97]},"type":"Feature","id":"node/3230345391","properties":{"name":"Donostia-San Sebastián","is_in":"Spain","country":"Spain","region":"Iberian Peninsula","wealth":3,"population":77298,"neighborhoodDensity":2,"city3s":0,"city4s":0,"city5s":3,"citySprawl":2,"ringUnits":{"inner":3,"middle":0,"outer":0}}},{"geometry":{"type":"Point","coordinates":[53.238,6.57]},"type":"Feature","id":"node/3125538288","properties":{"name":"Groningen","is_in":"The Netherlands","country":"The Netherlands","region":"Low Countries","wealth":4,"population":81227,"neighborhoodDensity":1,"city3s":0,"city4s":1,"city5s":1,"citySprawl":2,"ringUnits":{"inner":2,"middle":0,"outer":0}}},{"geometry":{"type":"Point","coordinates":[34.888,-1.31]},"type":"Feature","id":"node/3110093634","properties":{"name":"Tlemcen","wealth":1,"population":63307,"neighborhoodDensity":3,"city3s":0,"city4s":0,"city5s":2,"citySprawl":1,"ringUnits":{"inner":2,"middle":0,"outer":0}}},{"geometry":{"type":"Point","coordinates":[41.163,-8.61]},"type":"Feature","id":"node/2986300166","properties":{"name":"Porto","is_in":"Portugal","country":"Portugal","region":"Iberian Peninsula","wealth":3,"population":91527,"neighborhoodDensity":1,"city3s":0,"city4s":1,"city5s":1,"citySprawl":1,"ringUnits":{"inner":2,"middle":0,"outer":0}}},{"geometry":{"type":"Point","coordinates":[40.663,-8.65]},"type":"Feature","id":"node/2912652994","properties":{"name":"Aveiro","wealth":5,"population":50000,"neighborhoodDensity":3,"city3s":0,"city4s":0,"city5s":2,"citySprawl":2,"ringUnits":{"inner":2,"middle":0,"outer":0}}},{"geometry":{"type":"Point","coordinates":[42.688,21.17]},"type":"Feature","id":"node/2885136501","properties":{"name":"Pristina","is_in":"Republic of Kosova","ele":"650m","country":"Kosovo","region":"The Balkans","wealth":1,"population":146427,"neighborhoodDensity":3,"city3s":0,"city4s":0,"city5s":5,"citySprawl":1,"ringUnits":{"inner":4,"middle":1,"outer":0}}},{"geometry":{"type":"Point","coordinates":[40.313,-3.73]},"type":"Feature","id":"node/2697472985","properties":{"name":"Getafe","ele":"622","wealth":1,"population":73202,"neighborhoodDensity":3,"city3s":0,"city4s":0,"city5s":2,"citySprawl":1,"ringUnits":{"inner":2,"middle":0,"outer":0}}},{"geometry":{"type":"Point","coordinates":[47.063,21.95]},"type":"Feature","id":"node/2691094601","properties":{"name":"Oradea","is_in":"România","country":"Romania","region":"The Balkans","wealth":2,"population":80134,"neighborhoodDensity":1,"city3s":0,"city4s":1,"city5s":1,"citySprawl":3,"ringUnits":{"inner":2,"middle":0,"outer":0}}},{"geometry":{"type":"Point","coordinates":[50.913,5.99]},"type":"Feature","id":"node/2667692112","properties":{"name":"Heerlen","is_in":"The Netherlands","country":"The Netherlands","region":"Low Countries","wealth":4,"population":50000,"neighborhoodDensity":1,"city3s":0,"city4s":1,"city5s":0,"citySprawl":1,"ringUnits":{"inner":1,"middle":0,"outer":0}}},{"geometry":{"type":"Point","coordinates":[33.713,-7.37]},"type":"Feature","id":"node/2622712708","properties":{"name":"Mohammedia","wealth":3,"population":113296,"neighborhoodDensity":2,"city3s":0,"city4s":1,"city5s":2,"citySprawl":2,"ringUnits":{"inner":3,"middle":0,"outer":0}}},{"geometry":{"type":"Point","coordinates":[40.738,8.57]},"type":"Feature","id":"node/2615891334","properties":{"name":"Sassari","wealth":1,"population":58954,"neighborhoodDensity":3,"city3s":0,"city4s":0,"city5s":2,"citySprawl":2,"ringUnits":{"inner":2,"middle":0,"outer":0}}},{"geometry":{"type":"Point","coordinates":[50.913,-1.39]},"type":"Feature","id":"node/2478628079","properties":{"name":"Southampton","is_in":"United Kingdom","country":"United Kingdom","region":"United Kingdom","wealth":4,"population":91365,"neighborhoodDensity":3,"city3s":0,"city4s":0,"city5s":3,"citySprawl":2,"ringUnits":{"inner":3,"middle":0,"outer":0}}},{"geometry":{"type":"Point","coordinates":[42.163,-0.39]},"type":"Feature","id":"node/2469923579","properties":{"name":"Huesca","is_in":"Spain","ele":"483","country":"Spain","region":"Iberian Peninsula","wealth":3,"population":50000,"neighborhoodDensity":1,"city3s":0,"city4s":1,"city5s":0,"citySprawl":1,"ringUnits":{"inner":1,"middle":0,"outer":0}}},{"geometry":{"type":"Point","coordinates":[46.863,29.65]},"type":"Feature","id":"node/2339172677","properties":{"name":"Tiraspol","is_in":"Moldova","country":"Moldova","region":"Eastern Europe","wealth":1,"population":61893,"neighborhoodDensity":3,"city3s":0,"city4s":0,"city5s":2,"citySprawl":2,"ringUnits":{"inner":2,"middle":0,"outer":0}}},{"geometry":{"type":"Point","coordinates":[45.713,9.67]},"type":"Feature","id":"node/2289017953","properties":{"name":"Bergamo","is_in":"Italy","country":"Italy","region":"Italy","wealth":4,"population":54507,"neighborhoodDensity":3,"city3s":0,"city4s":0,"city5s":2,"citySprawl":1,"ringUnits":{"inner":2,"middle":0,"outer":0}}},{"geometry":{"type":"Point","coordinates":[47.163,23.89]},"type":"Feature","id":"node/2266253042","properties":{"name":"Dej","is_in":"Romania","country":"Romania","region":"The Balkans","wealth":2,"population":25000,"neighborhoodDensity":3,"city3s":0,"city4s":0,"city5s":1,"citySprawl":2,"ringUnits":{"inner":1,"middle":0,"outer":0}}},{"geometry":{"type":"Point","coordinates":[40.963,19.71]},"type":"Feature","id":"node/2193240328","properties":{"name":"Lushnja","is_in":"Albania","ele":"9","country":"Albania","region":"The Balkans","wealth":1,"population":50000,"neighborhoodDensity":1,"city3s":0,"city4s":1,"city5s":0,"citySprawl":3,"ringUnits":{"inner":1,"middle":0,"outer":0}}},{"geometry":{"type":"Point","coordinates":[39.163,20.99]},"type":"Feature","id":"node/2189143339","properties":{"name":"Arta","is_in":"Greece","ele":"38","country":"Greece","region":"The Balkans","wealth":3,"population":25000,"neighborhoodDensity":1,"city3s":0,"city4s":0,"city5s":1,"citySprawl":3,"ringUnits":{"inner":1,"middle":0,"outer":0}}},{"geometry":{"type":"Point","coordinates":[49.963,18.61]},"type":"Feature","id":"node/2154460153","properties":{"name":"Jastrzębie-Zdrój","wealth":2,"population":50000,"neighborhoodDensity":2,"city3s":0,"city4s":0,"city5s":2,"citySprawl":1,"ringUnits":{"inner":2,"middle":0,"outer":0}}},{"geometry":{"type":"Point","coordinates":[41.113,20.09]},"type":"Feature","id":"node/2142698589","properties":{"name":"Elbasan","ele":"150","wealth":2,"population":60064,"neighborhoodDensity":2,"city3s":0,"city4s":0,"city5s":2,"citySprawl":2,"ringUnits":{"inner":2,"middle":0,"outer":0}}},{"geometry":{"type":"Point","coordinates":[50.888,20.65]},"type":"Feature","id":"node/2110720553","properties":{"name":"Kielce","wealth":2,"population":81130,"neighborhoodDensity":3,"city3s":0,"city4s":0,"city5s":3,"citySprawl":1,"ringUnits":{"inner":3,"middle":0,"outer":0}}},{"geometry":{"type":"Point","coordinates":[48.788,11.43]},"type":"Feature","id":"node/2110382406","properties":{"name":"Ingolstadt","ele":"374","wealth":1,"population":59379,"neighborhoodDensity":2,"city3s":0,"city4s":0,"city5s":2,"citySprawl":3,"ringUnits":{"inner":2,"middle":0,"outer":0}}},{"geometry":{"type":"Point","coordinates":[51.688,7.83]},"type":"Feature","id":"node/2069498986","properties":{"name":"Hamm","is_in":"Nordrhein-Westfalen,Deutschland,Europe","ele":"63","country":"Germany","region":"Germany","wealth":4,"population":74244,"neighborhoodDensity":2,"city3s":0,"city4s":0,"city5s":2,"citySprawl":2,"ringUnits":{"inner":2,"middle":0,"outer":0}}},{"geometry":{"type":"Point","coordinates":[43.863,18.39]},"type":"Feature","id":"node/2021709163","properties":{"name":"Sarajevo","is_in":"Bosnia and Herzegovina","country":"Bosnia","region":"The Balkans","wealth":1,"population":134322,"neighborhoodDensity":1,"city3s":1,"city4s":0,"city5s":1,"citySprawl":1,"ringUnits":{"inner":2,"middle":0,"outer":0}}},{"geometry":{"type":"Point","coordinates":[44.213,17.91]},"type":"Feature","id":"node/1966975750","properties":{"name":"Zenica","wealth":2,"population":50000,"neighborhoodDensity":3,"city3s":0,"city4s":0,"city5s":2,"citySprawl":2,"ringUnits":{"inner":2,"middle":0,"outer":0}}},{"geometry":{"type":"Point","coordinates":[33.938,-6.91]},"type":"Feature","id":"node/1954988722","properties":{"name":"Témara ⵜⵎⴰⵔⴰ تمارة","wealth":3,"population":50000,"neighborhoodDensity":2,"city3s":0,"city4s":0,"city5s":2,"citySprawl":3,"ringUnits":{"inner":2,"middle":0,"outer":0}}},{"geometry":{"type":"Point","coordinates":[45.063,9.71]},"type":"Feature","id":"node/1944059487","properties":{"name":"Piacenza","wealth":3,"population":50763,"neighborhoodDensity":1,"city3s":0,"city4s":1,"city5s":0,"citySprawl":3,"ringUnits":{"inner":1,"middle":0,"outer":0}}},{"geometry":{"type":"Point","coordinates":[36.838,5.79]},"type":"Feature","id":"node/1941427461","properties":{"name":"Jijel","is_in":"Algeria","country":"Algeria","region":"North Africa","wealth":1,"population":61618,"neighborhoodDensity":1,"city3s":0,"city4s":1,"city5s":0,"citySprawl":3,"ringUnits":{"inner":1,"middle":0,"outer":0}}},{"geometry":{"type":"Point","coordinates":[37.088,15.31]},"type":"Feature","id":"node/1932675079","properties":{"name":"Siracusa","wealth":4,"population":58000,"neighborhoodDensity":1,"city3s":0,"city4s":1,"city5s":0,"citySprawl":2,"ringUnits":{"inner":1,"middle":0,"outer":0}}},{"geometry":{"type":"Point","coordinates":[40.763,19.71]},"type":"Feature","id":"node/1912969900","properties":{"name":"Roskovec","ele":"30","wealth":2,"population":25000,"neighborhoodDensity":1,"city3s":0,"city4s":0,"city5s":1,"citySprawl":3,"ringUnits":{"inner":1,"middle":0,"outer":0}}},{"geometry":{"type":"Point","coordinates":[49.513,0.11]},"type":"Feature","id":"node/1909836591","properties":{"name":"Le Havre","wealth":3,"population":74081,"neighborhoodDensity":3,"city3s":0,"city4s":0,"city5s":2,"citySprawl":1,"ringUnits":{"inner":2,"middle":0,"outer":0}}},{"geometry":{"type":"Point","coordinates":[35.188,33.37]},"type":"Feature","id":"node/1893015330","properties":{"name":"Nicosia","is_in":"Cyprus","country":"Cyprus","region":"Turkey","wealth":3,"population":110348,"neighborhoodDensity":1,"city3s":1,"city4s":0,"city5s":0,"citySprawl":1,"ringUnits":{"inner":1,"middle":0,"outer":0}}},{"geometry":{"type":"Point","coordinates":[41.013,28.97]},"type":"Feature","id":"node/1882099475","properties":{"name":"Istanbul","is_in":"Turkey","country":"Turkey","region":"Turkey","wealth":2,"population":1540381,"neighborhoodDensity":2,"city3s":7,"city4s":8,"city5s":17,"citySprawl":1,"ringUnits":{"inner":9,"middle":10,"outer":13}}},{"geometry":{"type":"Point","coordinates":[39.013,-1.85]},"type":"Feature","id":"node/1868667281","properties":{"name":"Albacete","wealth":3,"population":72865,"neighborhoodDensity":1,"city3s":0,"city4s":1,"city5s":0,"citySprawl":3,"ringUnits":{"inner":1,"middle":0,"outer":0}}},{"geometry":{"type":"Point","coordinates":[35.788,-5.79]},"type":"Feature","id":"node/1863747052","properties":{"name":"Tangier","is_in":"Morocco","country":"Morocco","region":"North Africa","wealth":1,"population":240832,"neighborhoodDensity":1,"city3s":2,"city4s":0,"city5s":1,"citySprawl":1,"ringUnits":{"inner":3,"middle":0,"outer":0}}},{"geometry":{"type":"Point","coordinates":[34.288,-6.57]},"type":"Feature","id":"node/1863747049","properties":{"name":"Kénitra ⵇⵏⵉⵟⵔⴰ القنيطرة","is_in":"Morocco","country":"Morocco","region":"North Africa","wealth":1,"population":138883,"neighborhoodDensity":2,"city3s":0,"city4s":1,"city5s":3,"citySprawl":3,"ringUnits":{"inner":4,"middle":0,"outer":0}}},{"geometry":{"type":"Point","coordinates":[52.188,22.29]},"type":"Feature","id":"node/1854937117","properties":{"name":"Siedlce","wealth":2,"population":50000,"neighborhoodDensity":1,"city3s":0,"city4s":1,"city5s":0,"citySprawl":2,"ringUnits":{"inner":1,"middle":0,"outer":0}}},{"geometry":{"type":"Point","coordinates":[50.063,19.95]},"type":"Feature","id":"node/1838666975","properties":{"name":"Krakow","wealth":2,"population":206839,"neighborhoodDensity":1,"city3s":2,"city4s":0,"city5s":0,"citySprawl":2,"ringUnits":{"inner":2,"middle":0,"outer":0}}},{"geometry":{"type":"Point","coordinates":[43.963,4.81]},"type":"Feature","id":"node/1836027948","properties":{"name":"Avignon","wealth":5,"population":50000,"neighborhoodDensity":1,"city3s":0,"city4s":1,"city5s":0,"citySprawl":3,"ringUnits":{"inner":1,"middle":0,"outer":0}}},{"geometry":{"type":"Point","coordinates":[41.338,19.83]},"type":"Feature","id":"node/1835254686","properties":{"name":"Tiranë","is_in":"Albania","country":"Albania","region":"The Balkans","wealth":1,"population":136625,"neighborhoodDensity":1,"city3s":1,"city4s":0,"city5s":1,"citySprawl":3,"ringUnits":{"inner":2,"middle":0,"outer":0}}},{"geometry":{"type":"Point","coordinates":[40.538,22.21]},"type":"Feature","id":"node/1834381643","properties":{"name":"Veria","wealth":5,"population":50000,"neighborhoodDensity":2,"city3s":0,"city4s":0,"city5s":2,"citySprawl":1,"ringUnits":{"inner":2,"middle":0,"outer":0}}},{"geometry":{"type":"Point","coordinates":[44.138,15.23]},"type":"Feature","id":"node/1832917478","properties":{"name":"Zadar","is_in":"Croatia","country":"Croatia","region":"The Balkans","wealth":2,"population":50000,"neighborhoodDensity":1,"city3s":0,"city4s":1,"city5s":0,"citySprawl":3,"ringUnits":{"inner":1,"middle":0,"outer":0}}},{"geometry":{"type":"Point","coordinates":[41.338,19.45]},"type":"Feature","id":"node/1832288053","properties":{"name":"Durrës","is_in":"Durrës, Albania","country":"Albania","region":"The Balkans","wealth":1,"population":60246,"neighborhoodDensity":2,"city3s":0,"city4s":0,"city5s":2,"citySprawl":1,"ringUnits":{"inner":2,"middle":0,"outer":0}}},{"geometry":{"type":"Point","coordinates":[45.363,36.47]},"type":"Feature","id":"node/1830695012","properties":{"name":"Kerch","wealth":1,"population":66052,"neighborhoodDensity":2,"city3s":0,"city4s":0,"city5s":2,"citySprawl":3,"ringUnits":{"inner":2,"middle":0,"outer":0}}},{"geometry":{"type":"Point","coordinates":[44.888,13.85]},"type":"Feature","id":"node/1830216906","properties":{"name":"Pula","is_in":"Croatia","country":"Croatia","region":"The Balkans","wealth":2,"population":50000,"neighborhoodDensity":2,"city3s":0,"city4s":0,"city5s":2,"citySprawl":2,"ringUnits":{"inner":2,"middle":0,"outer":0}}},{"geometry":{"type":"Point","coordinates":[39.638,19.93]},"type":"Feature","id":"node/1827940532","properties":{"name":"Corfu","is_in":"Greece","country":"Greece","region":"The Balkans","wealth":3,"population":50000,"neighborhoodDensity":2,"city3s":0,"city4s":0,"city5s":2,"citySprawl":1,"ringUnits":{"inner":2,"middle":0,"outer":0}}},{"geometry":{"type":"Point","coordinates":[43.863,10.51]},"type":"Feature","id":"node/1822616932","properties":{"name":"Lucca","wealth":4,"population":50000,"neighborhoodDensity":3,"city3s":0,"city4s":0,"city5s":2,"citySprawl":2,"ringUnits":{"inner":2,"middle":0,"outer":0}}},{"geometry":{"type":"Point","coordinates":[41.038,21.35]},"type":"Feature","id":"node/1812231434","properties":{"name":"Bitola","wealth":4,"population":50000,"neighborhoodDensity":3,"city3s":0,"city4s":0,"city5s":2,"citySprawl":2,"ringUnits":{"inner":2,"middle":0,"outer":0}}},{"geometry":{"type":"Point","coordinates":[43.738,7.43]},"type":"Feature","id":"node/1790048269","properties":{"name":"Monaco","is_in":"Europe","wealth":3,"population":25000,"neighborhoodDensity":2,"city3s":0,"city4s":0,"city5s":1,"citySprawl":2,"ringUnits":{"inner":1,"middle":0,"outer":0}}},{"geometry":{"type":"Point","coordinates":[40.188,29.07]},"type":"Feature","id":"node/1786760799","properties":{"name":"Bursa","is_in":"Turkey","country":"Turkey","region":"Turkey","wealth":2,"population":505850,"neighborhoodDensity":3,"city3s":1,"city4s":2,"city5s":12,"citySprawl":2,"ringUnits":{"inner":9,"middle":5,"outer":1}}},{"geometry":{"type":"Point","coordinates":[42.488,14.23]},"type":"Feature","id":"node/1778115456","properties":{"name":"Pescara","wealth":3,"population":55561,"neighborhoodDensity":1,"city3s":0,"city4s":1,"city5s":0,"citySprawl":3,"ringUnits":{"inner":1,"middle":0,"outer":0}}},{"geometry":{"type":"Point","coordinates":[48.463,1.49]},"type":"Feature","id":"node/1768128336","properties":{"name":"Chartres","wealth":1,"population":50000,"neighborhoodDensity":3,"city3s":0,"city4s":0,"city5s":2,"citySprawl":3,"ringUnits":{"inner":2,"middle":0,"outer":0}}},{"geometry":{"type":"Point","coordinates":[50.488,4.87]},"type":"Feature","id":"node/1765500676","properties":{"name":"Namur","is_in":"Belgium","country":"Belgium","region":"Low Countries","wealth":4,"population":53679,"neighborhoodDensity":2,"city3s":0,"city4s":0,"city5s":2,"citySprawl":3,"ringUnits":{"inner":2,"middle":0,"outer":0}}},{"geometry":{"type":"Point","coordinates":[51.238,4.41]},"type":"Feature","id":"node/1765433658","properties":{"name":"Antwerp","is_in":"Belgium","country":"Belgium","region":"Low Countries","wealth":4,"population":155490,"neighborhoodDensity":1,"city3s":1,"city4s":1,"city5s":0,"citySprawl":3,"ringUnits":{"inner":2,"middle":0,"outer":0}}},{"geometry":{"type":"Point","coordinates":[49.713,21.77]},"type":"Feature","id":"node/1763537504","properties":{"name":"Krosno","wealth":5,"population":50000,"neighborhoodDensity":3,"city3s":0,"city4s":0,"city5s":2,"citySprawl":2,"ringUnits":{"inner":2,"middle":0,"outer":0}}},{"geometry":{"type":"Point","coordinates":[46.863,35.37]},"type":"Feature","id":"node/1756064266","properties":{"name":"Melitopol","wealth":3,"population":68507,"neighborhoodDensity":3,"city3s":0,"city4s":0,"city5s":2,"citySprawl":3,"ringUnits":{"inner":2,"middle":0,"outer":0}}},{"geometry":{"type":"Point","coordinates":[48.513,34.63]},"type":"Feature","id":"node/1756064253","properties":{"name":"Kamianske","wealth":5,"population":94762,"neighborhoodDensity":2,"city3s":0,"city4s":0,"city5s":3,"citySprawl":3,"ringUnits":{"inner":3,"middle":0,"outer":0}}},{"geometry":{"type":"Point","coordinates":[50.138,18.99]},"type":"Feature","id":"node/1751621551","properties":{"name":"Tychy","wealth":3,"population":59680,"neighborhoodDensity":1,"city3s":0,"city4s":1,"city5s":0,"citySprawl":2,"ringUnits":{"inner":1,"middle":0,"outer":0}}},{"geometry":{"type":"Point","coordinates":[52.563,19.71]},"type":"Feature","id":"node/1751621527","properties":{"name":"Płock","wealth":5,"population":57724,"neighborhoodDensity":3,"city3s":0,"city4s":0,"city5s":2,"citySprawl":2,"ringUnits":{"inner":2,"middle":0,"outer":0}}},{"geometry":{"type":"Point","coordinates":[52.663,19.07]},"type":"Feature","id":"node/1751621506","properties":{"name":"Włocławek","wealth":2,"population":55092,"neighborhoodDensity":3,"city3s":0,"city4s":0,"city5s":2,"citySprawl":3,"ringUnits":{"inner":2,"middle":0,"outer":0}}},{"geometry":{"type":"Point","coordinates":[34.988,-3.39]},"type":"Feature","id":"node/1725334403","properties":{"name":"Driouch-ⴷⵔⵉⵡⵛ-ادريوش","wealth":5,"population":50000,"neighborhoodDensity":2,"city3s":0,"city4s":0,"city5s":2,"citySprawl":1,"ringUnits":{"inner":2,"middle":0,"outer":0}}},{"geometry":{"type":"Point","coordinates":[47.238,16.63]},"type":"Feature","id":"node/1704499260","properties":{"name":"Szombathely","is_in":"Hungary","country":"Hungary","region":"Central Europe","wealth":2,"population":50000,"neighborhoodDensity":3,"city3s":0,"city4s":0,"city5s":2,"citySprawl":3,"ringUnits":{"inner":2,"middle":0,"outer":0}}},{"geometry":{"type":"Point","coordinates":[43.713,7.27]},"type":"Feature","id":"node/1701090139","properties":{"name":"Nice","wealth":2,"population":118411,"neighborhoodDensity":1,"city3s":1,"city4s":0,"city5s":0,"citySprawl":2,"ringUnits":{"inner":1,"middle":0,"outer":0}}},{"geometry":{"type":"Point","coordinates":[48.138,11.59]},"type":"Feature","id":"node/1700534808","properties":{"name":"Munich","is_in":"Germany","ele":"519","country":"Germany","region":"Germany","wealth":4,"population":336361,"neighborhoodDensity":1,"city3s":3,"city4s":0,"city5s":1,"citySprawl":1,"ringUnits":{"inner":4,"middle":0,"outer":0}}},{"geometry":{"type":"Point","coordinates":[42.713,23.33]},"type":"Feature","id":"node/1700083447","properties":{"name":"Sofia","is_in":"Bulgaria","ele":"595","country":"Bulgaria","region":"The Balkans","wealth":1,"population":298117,"neighborhoodDensity":2,"city3s":1,"city4s":1,"city5s":5,"citySprawl":2,"ringUnits":{"inner":6,"middle":1,"outer":0}}},{"geometry":{"type":"Point","coordinates":[48.413,10.01]},"type":"Feature","id":"node/1699831958","properties":{"name":"Ulm","is_in":"Germany","country":"Germany","region":"Germany","wealth":4,"population":57340,"neighborhoodDensity":1,"city3s":0,"city4s":1,"city5s":0,"citySprawl":2,"ringUnits":{"inner":1,"middle":0,"outer":0}}},{"geometry":{"type":"Point","coordinates":[42.163,24.75]},"type":"Feature","id":"node/1698668366","properties":{"name":"Plovdiv","is_in":"България","country":"Bulgaria","region":"The Balkans","wealth":1,"population":124535,"neighborhoodDensity":2,"city3s":0,"city4s":1,"city5s":2,"citySprawl":1,"ringUnits":{"inner":3,"middle":0,"outer":0}}},{"geometry":{"type":"Point","coordinates":[51.763,18.09]},"type":"Feature","id":"node/1697928657","properties":{"name":"Kalisz","wealth":1,"population":51389,"neighborhoodDensity":2,"city3s":0,"city4s":0,"city5s":2,"citySprawl":3,"ringUnits":{"inner":2,"middle":0,"outer":0}}},{"geometry":{"type":"Point","coordinates":[43.563,10.33]},"type":"Feature","id":"node/1697770807","properties":{"name":"Livorno","is_in":"Italy","country":"Italy","region":"Italy","wealth":4,"population":69208,"neighborhoodDensity":1,"city3s":0,"city4s":1,"city5s":0,"citySprawl":2,"ringUnits":{"inner":1,"middle":0,"outer":0}}},{"geometry":{"type":"Point","coordinates":[53.513,18.77]},"type":"Feature","id":"node/1697586141","properties":{"name":"Grudziądz","wealth":1,"population":50000,"neighborhoodDensity":2,"city3s":0,"city4s":0,"city5s":2,"citySprawl":3,"ringUnits":{"inner":2,"middle":0,"outer":0}}},{"geometry":{"type":"Point","coordinates":[53.038,18.63]},"type":"Feature","id":"node/1697487051","properties":{"name":"Toruń","wealth":1,"population":82143,"neighborhoodDensity":1,"city3s":0,"city4s":1,"city5s":1,"citySprawl":3,"ringUnits":{"inner":2,"middle":0,"outer":0}}},{"geometry":{"type":"Point","coordinates":[52.413,13.07]},"type":"Feature","id":"node/1695218178","properties":{"name":"Potsdam","is_in":"Germany","ele":"32","country":"Germany","region":"Germany","wealth":4,"population":67344,"neighborhoodDensity":1,"city3s":0,"city4s":1,"city5s":0,"citySprawl":2,"ringUnits":{"inner":1,"middle":0,"outer":0}}},{"geometry":{"type":"Point","coordinates":[44.863,-0.57]},"type":"Feature","id":"node/1691675873","properties":{"name":"Bordeaux","is_in":"France","country":"France","region":"France","wealth":4,"population":92544,"neighborhoodDensity":2,"city3s":0,"city4s":0,"city5s":3,"citySprawl":2,"ringUnits":{"inner":3,"middle":0,"outer":0}}},{"geometry":{"type":"Point","coordinates":[50.663,5.59]},"type":"Feature","id":"node/1689207163","properties":{"name":"Liège","is_in":"Belgium","country":"Belgium","region":"Low Countries","wealth":4,"population":80318,"neighborhoodDensity":3,"city3s":0,"city4s":0,"city5s":3,"citySprawl":2,"ringUnits":{"inner":3,"middle":0,"outer":0}}},{"geometry":{"type":"Point","coordinates":[50.013,36.25]},"type":"Feature","id":"node/1685829423","properties":{"name":"Kharkiv","wealth":1,"population":323772,"neighborhoodDensity":2,"city3s":1,"city4s":2,"city5s":4,"citySprawl":3,"ringUnits":{"inner":7,"middle":0,"outer":0}}},{"geometry":{"type":"Point","coordinates":[54.113,12.13]},"type":"Feature","id":"node/1684321651","properties":{"name":"Rostock","is_in":"Germany","country":"Germany","region":"Germany","wealth":4,"population":82138,"neighborhoodDensity":3,"city3s":0,"city4s":0,"city5s":3,"citySprawl":1,"ringUnits":{"inner":3,"middle":0,"outer":0}}},{"geometry":{"type":"Point","coordinates":[51.363,12.39]},"type":"Feature","id":"node/1681920624","properties":{"name":"Leipzig","is_in":"Germany","ele":"118","country":"Germany","region":"Germany","wealth":4,"population":158461,"neighborhoodDensity":2,"city3s":0,"city4s":1,"city5s":4,"citySprawl":2,"ringUnits":{"inner":5,"middle":0,"outer":0}}},{"geometry":{"type":"Point","coordinates":[39.863,-4.01]},"type":"Feature","id":"node/1679058496","properties":{"name":"Toledo","is_in":"Spain","country":"Spain","region":"Iberian Peninsula","wealth":3,"population":50000,"neighborhoodDensity":3,"city3s":0,"city4s":0,"city5s":2,"citySprawl":1,"ringUnits":{"inner":2,"middle":0,"outer":0}}},{"geometry":{"type":"Point","coordinates":[43.738,10.41]},"type":"Feature","id":"node/1677276966","properties":{"name":"Pisa","wealth":5,"population":50000,"neighborhoodDensity":1,"city3s":0,"city4s":1,"city5s":0,"citySprawl":2,"ringUnits":{"inner":1,"middle":0,"outer":0}}},{"geometry":{"type":"Point","coordinates":[51.538,9.95]},"type":"Feature","id":"node/1674619101","properties":{"name":"Göttingen","is_in":"Germany","country":"Germany","region":"Germany","wealth":4,"population":60997,"neighborhoodDensity":1,"city3s":0,"city4s":1,"city5s":0,"citySprawl":3,"ringUnits":{"inner":1,"middle":0,"outer":0}}},{"geometry":{"type":"Point","coordinates":[48.788,9.19]},"type":"Feature","id":"node/1674026139","properties":{"name":"Stuttgart","is_in":"Germany","ele":"247","country":"Germany","region":"Germany","wealth":4,"population":177654,"neighborhoodDensity":3,"city3s":0,"city4s":1,"city5s":5,"citySprawl":1,"ringUnits":{"inner":4,"middle":1,"outer":1}}},{"geometry":{"type":"Point","coordinates":[51.063,3.73]},"type":"Feature","id":"node/1668655163","properties":{"name":"Ghent","is_in":"Belgium","country":"Belgium","region":"Low Countries","wealth":4,"population":91392,"neighborhoodDensity":2,"city3s":0,"city4s":0,"city5s":3,"citySprawl":2,"ringUnits":{"inner":3,"middle":0,"outer":0}}},{"geometry":{"type":"Point","coordinates":[51.488,11.99]},"type":"Feature","id":"node/1667005776","properties":{"name":"Halle (Saale)","ele":"88","wealth":1,"population":89922,"neighborhoodDensity":2,"city3s":0,"city4s":0,"city5s":3,"citySprawl":3,"ringUnits":{"inner":3,"middle":0,"outer":0}}},{"geometry":{"type":"Point","coordinates":[42.713,2.89]},"type":"Feature","id":"node/1664142674","properties":{"name":"Perpignan","ele":"30","wealth":5,"population":55939,"neighborhoodDensity":3,"city3s":0,"city4s":0,"city5s":2,"citySprawl":2,"ringUnits":{"inner":2,"middle":0,"outer":0}}},{"geometry":{"type":"Point","coordinates":[51.038,6.99]},"type":"Feature","id":"node/1651889631","properties":{"name":"Leverkusen","is_in":"Germany","ele":"60","country":"Germany","region":"Germany","wealth":4,"population":69694,"neighborhoodDensity":2,"city3s":0,"city4s":0,"city5s":2,"citySprawl":3,"ringUnits":{"inner":2,"middle":0,"outer":0}}},{"geometry":{"type":"Point","coordinates":[52.388,9.75]},"type":"Feature","id":"node/1651888734","properties":{"name":"Hanover","is_in":"Germany","country":"Germany","region":"Germany","wealth":4,"population":159531,"neighborhoodDensity":1,"city3s":1,"city4s":1,"city5s":0,"citySprawl":2,"ringUnits":{"inner":2,"middle":0,"outer":0}}},{"geometry":{"type":"Point","coordinates":[51.213,3.23]},"type":"Feature","id":"node/1651558422","properties":{"name":"Bruges","is_in":"Belgium","country":"Belgium","region":"Low Countries","wealth":4,"population":56012,"neighborhoodDensity":1,"city3s":0,"city4s":1,"city5s":0,"citySprawl":2,"ringUnits":{"inner":1,"middle":0,"outer":0}}},{"geometry":{"type":"Point","coordinates":[49.563,25.61]},"type":"Feature","id":"node/1643945522","properties":{"name":"Ternopil","wealth":4,"population":86020,"neighborhoodDensity":3,"city3s":0,"city4s":0,"city5s":3,"citySprawl":1,"ringUnits":{"inner":3,"middle":0,"outer":0}}},{"geometry":{"type":"Point","coordinates":[42.888,20.87]},"type":"Feature","id":"node/1640485042","properties":{"name":"Mitrovicë","is_in":"Republika e Kosovës","country":"Kosovo","region":"The Balkans","wealth":1,"population":50000,"neighborhoodDensity":2,"city3s":0,"city4s":0,"city5s":2,"citySprawl":3,"ringUnits":{"inner":2,"middle":0,"outer":0}}},{"geometry":{"type":"Point","coordinates":[50.863,4.37]},"type":"Feature","id":"node/1635651356","properties":{"name":"Brussels","is_in":"Belgium","ele":"70","country":"Belgium","region":"Low Countries","wealth":4,"population":67423,"neighborhoodDensity":2,"city3s":0,"city4s":0,"city5s":2,"citySprawl":1,"ringUnits":{"inner":2,"middle":0,"outer":0}}},{"geometry":{"type":"Point","coordinates":[51.488,6.87]},"type":"Feature","id":"node/1613672847","properties":{"name":"Oberhausen","is_in":"Germany","ele":"35","country":"Germany","region":"Germany","wealth":4,"population":83785,"neighborhoodDensity":2,"city3s":0,"city4s":0,"city5s":3,"citySprawl":2,"ringUnits":{"inner":3,"middle":0,"outer":0}}},{"geometry":{"type":"Point","coordinates":[51.063,-1.31]},"type":"Feature","id":"node/1610961669","properties":{"name":"Winchester","is_in":"Hampshire; England; UK; United Kingdom","country":"United Kingdom","region":"United Kingdom","wealth":4,"population":50000,"neighborhoodDensity":1,"city3s":0,"city4s":1,"city5s":0,"citySprawl":2,"ringUnits":{"inner":1,"middle":0,"outer":0}}},{"geometry":{"type":"Point","coordinates":[39.113,26.57]},"type":"Feature","id":"node/1606160775","properties":{"name":"Mytilene","is_in":"Lesbos,North Aegean, Greece, EU","country":"Greece","region":"The Balkans","wealth":3,"population":25000,"neighborhoodDensity":1,"city3s":0,"city4s":0,"city5s":1,"citySprawl":3,"ringUnits":{"inner":1,"middle":0,"outer":0}}},{"geometry":{"type":"Point","coordinates":[49.488,10.99]},"type":"Feature","id":"node/1602111978","properties":{"name":"Fürth","ele":"294","wealth":2,"population":56732,"neighborhoodDensity":2,"city3s":0,"city4s":0,"city5s":2,"citySprawl":2,"ringUnits":{"inner":2,"middle":0,"outer":0}}},{"geometry":{"type":"Point","coordinates":[50.088,14.43]},"type":"Feature","id":"node/1601837931","properties":{"name":"Prague","is_in":"Czech Republic","ele":"399","country":"Czech Republic","region":"Central Europe","wealth":2,"population":291086,"neighborhoodDensity":1,"city3s":2,"city4s":1,"city5s":1,"citySprawl":3,"ringUnits":{"inner":4,"middle":0,"outer":0}}},{"geometry":{"type":"Point","coordinates":[49.213,16.63]},"type":"Feature","id":"node/1601566699","properties":{"name":"Brno","is_in":"Czech Republic","country":"Czech Republic","region":"Central Europe","wealth":2,"population":106089,"neighborhoodDensity":3,"city3s":0,"city4s":0,"city5s":4,"citySprawl":3,"ringUnits":{"inner":4,"middle":0,"outer":0}}},{"geometry":{"type":"Point","coordinates":[49.838,18.29]},"type":"Feature","id":"node/1601523251","properties":{"name":"Ostrava","is_in":"Czech Republic","country":"Czech Republic","region":"Central Europe","wealth":2,"population":110375,"neighborhoodDensity":2,"city3s":0,"city4s":1,"city5s":2,"citySprawl":2,"ringUnits":{"inner":3,"middle":0,"outer":0}}},{"geometry":{"type":"Point","coordinates":[49.613,17.27]},"type":"Feature","id":"node/1599305717","properties":{"name":"Olomouc","is_in":"Czech Republic","country":"Czech Republic","region":"Central Europe","wealth":2,"population":50000,"neighborhoodDensity":3,"city3s":0,"city4s":0,"city5s":2,"citySprawl":1,"ringUnits":{"inner":2,"middle":0,"outer":0}}},{"geometry":{"type":"Point","coordinates":[48.988,14.49]},"type":"Feature","id":"node/1599120629","properties":{"name":"České Budějovice","is_in":"Czech Republic","ele":"381","country":"Czech Republic","region":"Central Europe","wealth":2,"population":50000,"neighborhoodDensity":3,"city3s":0,"city4s":0,"city5s":2,"citySprawl":3,"ringUnits":{"inner":2,"middle":0,"outer":0}}},{"geometry":{"type":"Point","coordinates":[50.238,12.89]},"type":"Feature","id":"node/1599050315","properties":{"name":"Carlsbad","is_in":"Czech Republic","country":"Czech Republic","region":"Central Europe","wealth":2,"population":50000,"neighborhoodDensity":2,"city3s":0,"city4s":0,"city5s":2,"citySprawl":3,"ringUnits":{"inner":2,"middle":0,"outer":0}}},{"geometry":{"type":"Point","coordinates":[49.238,17.67]},"type":"Feature","id":"node/1598988152","properties":{"name":"Zlín","wealth":3,"population":50000,"neighborhoodDensity":2,"city3s":0,"city4s":0,"city5s":2,"citySprawl":2,"ringUnits":{"inner":2,"middle":0,"outer":0}}},{"geometry":{"type":"Point","coordinates":[50.688,14.05]},"type":"Feature","id":"node/1598391587","properties":{"name":"Ústí nad Labem","is_in":"Czech Republic","country":"Czech Republic","region":"Central Europe","wealth":2,"population":50000,"neighborhoodDensity":2,"city3s":0,"city4s":0,"city5s":2,"citySprawl":1,"ringUnits":{"inner":2,"middle":0,"outer":0}}},{"geometry":{"type":"Point","coordinates":[44.838,15.87]},"type":"Feature","id":"node/1596886537","properties":{"name":"Bihać","is_in":"Bosna i Hercegovina","ele":"222","wealth":3,"population":50000,"neighborhoodDensity":2,"city3s":0,"city4s":0,"city5s":2,"citySprawl":2,"ringUnits":{"inner":2,"middle":0,"outer":0}}},{"geometry":{"type":"Point","coordinates":[52.413,0.27]},"type":"Feature","id":"node/1593040792","properties":{"name":"Ely","wealth":4,"population":25000,"neighborhoodDensity":2,"city3s":0,"city4s":0,"city5s":1,"citySprawl":3,"ringUnits":{"inner":1,"middle":0,"outer":0}}},{"geometry":{"type":"Point","coordinates":[45.188,18.03]},"type":"Feature","id":"node/1588925812","properties":{"name":"Slavonski Brod","is_in":"Croatia","country":"Croatia","region":"The Balkans","wealth":2,"population":50000,"neighborhoodDensity":2,"city3s":0,"city4s":0,"city5s":2,"citySprawl":3,"ringUnits":{"inner":2,"middle":0,"outer":0}}},{"geometry":{"type":"Point","coordinates":[50.788,15.07]},"type":"Feature","id":"node/1587363366","properties":{"name":"Liberec","is_in":"Czech Republic","country":"Czech Republic","region":"Central Europe","wealth":2,"population":51123,"neighborhoodDensity":3,"city3s":0,"city4s":0,"city5s":2,"citySprawl":3,"ringUnits":{"inner":2,"middle":0,"outer":0}}},{"geometry":{"type":"Point","coordinates":[50.213,15.85]},"type":"Feature","id":"node/1586377542","properties":{"name":"Hradec Králové","is_in":"Czech Republic","country":"Czech Republic","region":"Central Europe","wealth":2,"population":50000,"neighborhoodDensity":2,"city3s":0,"city4s":0,"city5s":2,"citySprawl":3,"ringUnits":{"inner":2,"middle":0,"outer":0}}},{"geometry":{"type":"Point","coordinates":[51.088,-1.79]},"type":"Feature","id":"node/1586199140","properties":{"name":"Salisbury","is_in":"United Kingdom","country":"United Kingdom","region":"United Kingdom","wealth":4,"population":50000,"neighborhoodDensity":3,"city3s":0,"city4s":0,"city5s":2,"citySprawl":3,"ringUnits":{"inner":2,"middle":0,"outer":0}}},{"geometry":{"type":"Point","coordinates":[50.063,15.79]},"type":"Feature","id":"node/1585113445","properties":{"name":"Pardubice","is_in":"Czech Republic","country":"Czech Republic","region":"Central Europe","wealth":2,"population":50000,"neighborhoodDensity":1,"city3s":0,"city4s":1,"city5s":0,"citySprawl":1,"ringUnits":{"inner":1,"middle":0,"outer":0}}},{"geometry":{"type":"Point","coordinates":[38.638,21.41]},"type":"Feature","id":"node/1584055372","properties":{"name":"Agrinio","wealth":4,"population":50000,"neighborhoodDensity":3,"city3s":0,"city4s":0,"city5s":2,"citySprawl":3,"ringUnits":{"inner":2,"middle":0,"outer":0}}},{"geometry":{"type":"Point","coordinates":[42.663,18.11]},"type":"Feature","id":"node/1583747666","properties":{"name":"Dubrovnik","is_in":"Croatia","country":"Croatia","region":"The Balkans","wealth":2,"population":50000,"neighborhoodDensity":1,"city3s":0,"city4s":1,"city5s":0,"citySprawl":3,"ringUnits":{"inner":1,"middle":0,"outer":0}}},{"geometry":{"type":"Point","coordinates":[51.313,9.49]},"type":"Feature","id":"node/1583294719","properties":{"name":"Kassel","is_in":"Germany","ele":"167","country":"Germany","region":"Germany","wealth":4,"population":79482,"neighborhoodDensity":2,"city3s":0,"city4s":0,"city5s":3,"citySprawl":3,"ringUnits":{"inner":3,"middle":0,"outer":0}}},{"geometry":{"type":"Point","coordinates":[51.438,6.89]},"type":"Feature","id":"node/1575668118","properties":{"name":"Mülheim an der Ruhr","is_in":"Germany","ele":"40","country":"Germany","region":"Germany","wealth":4,"population":71588,"neighborhoodDensity":3,"city3s":0,"city4s":0,"city5s":2,"citySprawl":2,"ringUnits":{"inner":2,"middle":0,"outer":0}}},{"geometry":{"type":"Point","coordinates":[49.463,11.09]},"type":"Feature","id":"node/1569338041","properties":{"name":"Nuremberg","is_in":"Germany","ele":"309","country":"Germany","region":"Germany","wealth":4,"population":159753,"neighborhoodDensity":3,"city3s":0,"city4s":1,"city5s":4,"citySprawl":2,"ringUnits":{"inner":5,"middle":0,"outer":0}}},{"geometry":{"type":"Point","coordinates":[48.388,10.91]},"type":"Feature","id":"node/1559853166","properties":{"name":"Augsburg","wealth":1,"population":100809,"neighborhoodDensity":3,"city3s":0,"city4s":0,"city5s":4,"citySprawl":2,"ringUnits":{"inner":4,"middle":0,"outer":0}}},{"geometry":{"type":"Point","coordinates":[45.838,15.99]},"type":"Feature","id":"node/1551865419","properties":{"name":"Zagreb","is_in":"Croatia","ele":"158","country":"Croatia","region":"The Balkans","wealth":2,"population":212563,"neighborhoodDensity":3,"city3s":0,"city4s":1,"city5s":6,"citySprawl":3,"ringUnits":{"inner":7,"middle":0,"outer":0}}},{"geometry":{"type":"Point","coordinates":[46.113,19.67]},"type":"Feature","id":"node/1547830258","properties":{"name":"Subotica","is_in":"Serbia","country":"Serbia","region":"The Balkans","wealth":1,"population":65762,"neighborhoodDensity":2,"city3s":0,"city4s":0,"city5s":2,"citySprawl":1,"ringUnits":{"inner":2,"middle":0,"outer":0}}},{"geometry":{"type":"Point","coordinates":[47.913,33.41]},"type":"Feature","id":"node/1532708613","properties":{"name":"Kryvyi Rih","wealth":4,"population":186331,"neighborhoodDensity":2,"city3s":0,"city4s":1,"city5s":5,"citySprawl":1,"ringUnits":{"inner":4,"middle":1,"outer":1}}},{"geometry":{"type":"Point","coordinates":[49.238,7.01]},"type":"Feature","id":"node/1530957491","properties":{"name":"Saarbrücken","is_in":"Germany","ele":"230","country":"Germany","region":"Germany","wealth":4,"population":74583,"neighborhoodDensity":1,"city3s":0,"city4s":1,"city5s":0,"citySprawl":1,"ringUnits":{"inner":1,"middle":0,"outer":0}}},{"geometry":{"type":"Point","coordinates":[42.388,20.45]},"type":"Feature","id":"node/1530391541","properties":{"name":"Gjakova","is_in":"Republika e Kosovës","country":"Kosovo","region":"The Balkans","wealth":1,"population":50000,"neighborhoodDensity":2,"city3s":0,"city4s":0,"city5s":2,"citySprawl":3,"ringUnits":{"inner":2,"middle":0,"outer":0}}},{"geometry":{"type":"Point","coordinates":[50.338,19.21]},"type":"Feature","id":"node/1507719599","properties":{"name":"Dąbrowa Górnicza","wealth":4,"population":58110,"neighborhoodDensity":3,"city3s":0,"city4s":0,"city5s":2,"citySprawl":3,"ringUnits":{"inner":2,"middle":0,"outer":0}}},{"geometry":{"type":"Point","coordinates":[53.988,38.17]},"type":"Feature","id":"node/1493423723","properties":{"name":"Uzlovaya","wealth":3,"population":50000,"neighborhoodDensity":2,"city3s":0,"city4s":0,"city5s":2,"citySprawl":1,"ringUnits":{"inner":2,"middle":0,"outer":0}}},{"geometry":{"type":"Point","coordinates":[36.438,-6.13]},"type":"Feature","id":"node/1470838212","properties":{"name":"Chiclana de la Frontera","is_in":"Spain","ele":"13","country":"Spain","region":"Iberian Peninsula","wealth":3,"population":50000,"neighborhoodDensity":2,"city3s":0,"city4s":0,"city5s":2,"citySprawl":1,"ringUnits":{"inner":2,"middle":0,"outer":0}}},{"geometry":{"type":"Point","coordinates":[43.513,16.45]},"type":"Feature","id":"node/1467604275","properties":{"name":"Split","is_in":"Croatia","country":"Croatia","region":"The Balkans","wealth":2,"population":72797,"neighborhoodDensity":3,"city3s":0,"city4s":0,"city5s":2,"citySprawl":1,"ringUnits":{"inner":2,"middle":0,"outer":0}}},{"geometry":{"type":"Point","coordinates":[50.888,4.71]},"type":"Feature","id":"node/1448497912","properties":{"name":"Leuven","is_in":"Belgium","country":"Belgium","region":"Low Countries","wealth":4,"population":50000,"neighborhoodDensity":3,"city3s":0,"city4s":0,"city5s":2,"citySprawl":3,"ringUnits":{"inner":2,"middle":0,"outer":0}}},{"geometry":{"type":"Point","coordinates":[51.913,-8.47]},"type":"Feature","id":"node/1422314245","properties":{"name":"Cork","is_in":"County Cork","wealth":1,"population":58643,"neighborhoodDensity":3,"city3s":0,"city4s":0,"city5s":2,"citySprawl":2,"ringUnits":{"inner":2,"middle":0,"outer":0}}},{"geometry":{"type":"Point","coordinates":[47.513,8.73]},"type":"Feature","id":"node/1378949424","properties":{"name":"Winterthur","is_in":"Switzerland","ele":"439","country":"Switzerland","region":"The Alps","wealth":5,"population":52778,"neighborhoodDensity":1,"city3s":0,"city4s":1,"city5s":0,"citySprawl":2,"ringUnits":{"inner":1,"middle":0,"outer":0}}},{"geometry":{"type":"Point","coordinates":[40.638,20.79]},"type":"Feature","id":"node/1350492991","properties":{"name":"Korçë","is_in":"Albania","country":"Albania","region":"The Balkans","wealth":1,"population":50000,"neighborhoodDensity":1,"city3s":0,"city4s":1,"city5s":0,"citySprawl":2,"ringUnits":{"inner":1,"middle":0,"outer":0}}},{"geometry":{"type":"Point","coordinates":[33.288,-7.57]},"type":"Feature","id":"node/1339097697","properties":{"name":"Berrechid","is_in":"Morocco","country":"Morocco","region":"North Africa","wealth":1,"population":50000,"neighborhoodDensity":3,"city3s":0,"city4s":0,"city5s":2,"citySprawl":1,"ringUnits":{"inner":2,"middle":0,"outer":0}}},{"geometry":{"type":"Point","coordinates":[50.838,-0.13]},"type":"Feature","id":"node/1326762432","properties":{"name":"Brighton","is_in":"East Sussex, UK","country":"United Kingdom","region":"United Kingdom","wealth":4,"population":96453,"neighborhoodDensity":2,"city3s":0,"city4s":0,"city5s":3,"citySprawl":3,"ringUnits":{"inner":3,"middle":0,"outer":0}}},{"geometry":{"type":"Point","coordinates":[46.563,26.93]},"type":"Feature","id":"node/1308825513","properties":{"name":"Bacău","is_in":"România","country":"Romania","region":"The Balkans","wealth":2,"population":64611,"neighborhoodDensity":1,"city3s":0,"city4s":1,"city5s":0,"citySprawl":3,"ringUnits":{"inner":1,"middle":0,"outer":0}}},{"geometry":{"type":"Point","coordinates":[50.263,19.15]},"type":"Feature","id":"node/1282380456","properties":{"name":"Mysłowice","wealth":3,"population":50000,"neighborhoodDensity":1,"city3s":0,"city4s":1,"city5s":0,"citySprawl":1,"ringUnits":{"inner":1,"middle":0,"outer":0}}},{"geometry":{"type":"Point","coordinates":[44.013,22.95]},"type":"Feature","id":"node/1244326406","properties":{"name":"Calafat","is_in":"România","country":"Romania","region":"The Balkans","wealth":2,"population":25000,"neighborhoodDensity":3,"city3s":0,"city4s":0,"city5s":1,"citySprawl":3,"ringUnits":{"inner":1,"middle":0,"outer":0}}},{"geometry":{"type":"Point","coordinates":[43.388,-8.39]},"type":"Feature","id":"node/1235110932","properties":{"name":"A Coruña","is_in":"Spain","ele":"21","country":"Spain","region":"Iberian Peninsula","wealth":3,"population":93487,"neighborhoodDensity":1,"city3s":0,"city4s":1,"city5s":1,"citySprawl":1,"ringUnits":{"inner":2,"middle":0,"outer":0}}},{"geometry":{"type":"Point","coordinates":[51.563,5.09]},"type":"Feature","id":"node/1206763375","properties":{"name":"Tilburg","is_in":"The Netherlands","country":"The Netherlands","region":"Low Countries","wealth":4,"population":84465,"neighborhoodDensity":3,"city3s":0,"city4s":0,"city5s":3,"citySprawl":3,"ringUnits":{"inner":3,"middle":0,"outer":0}}},{"geometry":{"type":"Point","coordinates":[41.463,15.55]},"type":"Feature","id":"node/1112986261","properties":{"name":"Foggia","ele":"76","wealth":1,"population":66997,"neighborhoodDensity":2,"city3s":0,"city4s":0,"city5s":2,"citySprawl":3,"ringUnits":{"inner":2,"middle":0,"outer":0}}},{"geometry":{"type":"Point","coordinates":[40.563,-7.25]},"type":"Feature","id":"node/1084227094","properties":{"name":"Guarda","wealth":3,"population":25000,"neighborhoodDensity":1,"city3s":0,"city4s":0,"city5s":1,"citySprawl":3,"ringUnits":{"inner":1,"middle":0,"outer":0}}},{"geometry":{"type":"Point","coordinates":[36.513,-4.87]},"type":"Feature","id":"node/1081751552","properties":{"name":"Marbella","is_in":"Spain","ele":"18","country":"Spain","region":"Iberian Peninsula","wealth":3,"population":62091,"neighborhoodDensity":1,"city3s":0,"city4s":1,"city5s":0,"citySprawl":1,"ringUnits":{"inner":1,"middle":0,"outer":0}}},{"geometry":{"type":"Point","coordinates":[35.013,-5.89]},"type":"Feature","id":"node/1052364362","properties":{"name":"Ksar-el-Kebir ⵍⵇⵚⵔ ⵍⴽⴱⵉⵔ القصر الكبير","is_in":"Morocco","country":"Morocco","region":"North Africa","wealth":1,"population":52551,"neighborhoodDensity":2,"city3s":0,"city4s":0,"city5s":2,"citySprawl":1,"ringUnits":{"inner":2,"middle":0,"outer":0}}},{"geometry":{"type":"Point","coordinates":[42.888,-8.53]},"type":"Feature","id":"node/998649870","properties":{"name":"Santiago de Compostela","is_in":"Spain","ele":"260","country":"Spain","region":"Iberian Peninsula","wealth":3,"population":50000,"neighborhoodDensity":1,"city3s":0,"city4s":1,"city5s":0,"citySprawl":3,"ringUnits":{"inner":1,"middle":0,"outer":0}}},{"geometry":{"type":"Point","coordinates":[51.463,-2.59]},"type":"Feature","id":"node/959199214","properties":{"name":"Bristol","is_in":"United Kingdom","ele":"11","country":"United Kingdom","region":"United Kingdom","wealth":4,"population":136628,"neighborhoodDensity":3,"city3s":0,"city4s":0,"city5s":5,"citySprawl":2,"ringUnits":{"inner":5,"middle":0,"outer":0}}},{"geometry":{"type":"Point","coordinates":[41.363,2.11]},"type":"Feature","id":"node/939880925","properties":{"name":"l'Hospitalet de Llobregat","is_in":"Spain","ele":"11","country":"Spain","region":"Iberian Peninsula","wealth":3,"population":96727,"neighborhoodDensity":2,"city3s":0,"city4s":0,"city5s":3,"citySprawl":3,"ringUnits":{"inner":3,"middle":0,"outer":0}}},{"geometry":{"type":"Point","coordinates":[50.463,3.97]},"type":"Feature","id":"node/893278148","properties":{"name":"Mons","is_in":"Belgium","country":"Belgium","region":"Low Countries","wealth":4,"population":50000,"neighborhoodDensity":1,"city3s":0,"city4s":1,"city5s":0,"citySprawl":1,"ringUnits":{"inner":1,"middle":0,"outer":0}}},{"geometry":{"type":"Point","coordinates":[52.063,4.51]},"type":"Feature","id":"node/868039529","properties":{"name":"Zoetermeer","is_in":"The Netherlands","country":"The Netherlands","region":"Low Countries","wealth":4,"population":57126,"neighborhoodDensity":2,"city3s":0,"city4s":0,"city5s":2,"citySprawl":3,"ringUnits":{"inner":2,"middle":0,"outer":0}}},{"geometry":{"type":"Point","coordinates":[51.613,4.79]},"type":"Feature","id":"node/867998189","properties":{"name":"Breda","is_in":"The Netherlands","country":"The Netherlands","region":"Low Countries","wealth":4,"population":75924,"neighborhoodDensity":1,"city3s":0,"city4s":1,"city5s":1,"citySprawl":3,"ringUnits":{"inner":2,"middle":0,"outer":0}}},{"geometry":{"type":"Point","coordinates":[51.863,5.87]},"type":"Feature","id":"node/867975219","properties":{"name":"Nijmegen","is_in":"The Netherlands","country":"The Netherlands","region":"Low Countries","wealth":4,"population":70051,"neighborhoodDensity":1,"city3s":0,"city4s":1,"city5s":0,"citySprawl":3,"ringUnits":{"inner":1,"middle":0,"outer":0}}},{"geometry":{"type":"Point","coordinates":[42.438,25.63]},"type":"Feature","id":"node/836529193","properties":{"name":"Stara Zagora","is_in":"България","country":"Bulgaria","region":"The Balkans","wealth":1,"population":66155,"neighborhoodDensity":1,"city3s":0,"city4s":1,"city5s":0,"citySprawl":1,"ringUnits":{"inner":1,"middle":0,"outer":0}}},{"geometry":{"type":"Point","coordinates":[48.413,-4.47]},"type":"Feature","id":"node/823582966","properties":{"name":"Brest","wealth":5,"population":63668,"neighborhoodDensity":1,"city3s":0,"city4s":1,"city5s":0,"citySprawl":1,"ringUnits":{"inner":1,"middle":0,"outer":0}}},{"geometry":{"type":"Point","coordinates":[51.413,19.71]},"type":"Feature","id":"node/769235431","properties":{"name":"Piotrków Trybunalski","wealth":1,"population":50000,"neighborhoodDensity":3,"city3s":0,"city4s":0,"city5s":2,"citySprawl":2,"ringUnits":{"inner":2,"middle":0,"outer":0}}},{"geometry":{"type":"Point","coordinates":[42.438,-8.63]},"type":"Feature","id":"node/764716504","properties":{"name":"Pontevedra","is_in":"Spain","ele":"16","country":"Spain","region":"Iberian Peninsula","wealth":3,"population":50000,"neighborhoodDensity":3,"city3s":0,"city4s":0,"city5s":2,"citySprawl":2,"ringUnits":{"inner":2,"middle":0,"outer":0}}},{"geometry":{"type":"Point","coordinates":[51.488,-3.17]},"type":"Feature","id":"node/738885245","properties":{"name":"Cardiff","is_in":"United Kingdom","country":"United Kingdom","region":"United Kingdom","wealth":4,"population":119085,"neighborhoodDensity":1,"city3s":1,"city4s":0,"city5s":0,"citySprawl":2,"ringUnits":{"inner":1,"middle":0,"outer":0}}},{"geometry":{"type":"Point","coordinates":[40.313,20.03]},"type":"Feature","id":"node/728423669","properties":{"name":"Tepelena","is_in":"Albania","country":"Albania","region":"The Balkans","wealth":1,"population":25000,"neighborhoodDensity":3,"city3s":0,"city4s":0,"city5s":1,"citySprawl":3,"ringUnits":{"inner":1,"middle":0,"outer":0}}},{"geometry":{"type":"Point","coordinates":[41.513,-5.73]},"type":"Feature","id":"node/688986898","properties":{"name":"Zamora","is_in":"Spain","ele":"649","country":"Spain","region":"Iberian Peninsula","wealth":3,"population":50000,"neighborhoodDensity":3,"city3s":0,"city4s":0,"city5s":2,"citySprawl":1,"ringUnits":{"inner":2,"middle":0,"outer":0}}},{"geometry":{"type":"Point","coordinates":[52.163,5.39]},"type":"Feature","id":"node/667889917","properties":{"name":"Amersfoort","is_in":"The Netherlands","country":"The Netherlands","region":"Low Countries","wealth":4,"population":67231,"neighborhoodDensity":3,"city3s":0,"city4s":0,"city5s":2,"citySprawl":1,"ringUnits":{"inner":2,"middle":0,"outer":0}}},{"geometry":{"type":"Point","coordinates":[44.513,11.35]},"type":"Feature","id":"node/667350399","properties":{"name":"Bologna","ele":"54","wealth":1,"population":128676,"neighborhoodDensity":1,"city3s":1,"city4s":0,"city5s":1,"citySprawl":1,"ringUnits":{"inner":2,"middle":0,"outer":0}}},{"geometry":{"type":"Point","coordinates":[54.188,-6.33]},"type":"Feature","id":"node/663428001","properties":{"name":"Newry","is_in":"Northern Ireland","country":"Ireland","region":"United Kingdom","wealth":5,"population":25000,"neighborhoodDensity":3,"city3s":0,"city4s":0,"city5s":1,"citySprawl":1,"ringUnits":{"inner":1,"middle":0,"outer":0}}},{"geometry":{"type":"Point","coordinates":[53.563,8.59]},"type":"Feature","id":"node/660314734","properties":{"name":"Bremerhaven","is_in":"Germany","ele":"2","country":"Germany","region":"Germany","wealth":4,"population":55893,"neighborhoodDensity":2,"city3s":0,"city4s":0,"city5s":2,"citySprawl":3,"ringUnits":{"inner":2,"middle":0,"outer":0}}},{"geometry":{"type":"Point","coordinates":[47.163,39.75]},"type":"Feature","id":"node/654179991","properties":{"name":"Bataysk","wealth":4,"population":56732,"neighborhoodDensity":1,"city3s":0,"city4s":1,"city5s":0,"citySprawl":1,"ringUnits":{"inner":1,"middle":0,"outer":0}}},{"geometry":{"type":"Point","coordinates":[45.788,4.89]},"type":"Feature","id":"node/647953515","properties":{"name":"Villeurbanne","wealth":5,"population":64875,"neighborhoodDensity":1,"city3s":0,"city4s":1,"city5s":0,"citySprawl":3,"ringUnits":{"inner":1,"middle":0,"outer":0}}},{"geometry":{"type":"Point","coordinates":[40.663,-4.69]},"type":"Feature","id":"node/626639326","properties":{"name":"Ávila","is_in":"Spain","ele":"1131","country":"Spain","region":"Iberian Peninsula","wealth":3,"population":50000,"neighborhoodDensity":2,"city3s":0,"city4s":0,"city5s":2,"citySprawl":2,"ringUnits":{"inner":2,"middle":0,"outer":0}}},{"geometry":{"type":"Point","coordinates":[35.213,-6.15]},"type":"Feature","id":"node/583022208","properties":{"name":"Larache ⵍⵄⵔⴰⵢⵛ العرائش","wealth":3,"population":52548,"neighborhoodDensity":3,"city3s":0,"city4s":0,"city5s":2,"citySprawl":2,"ringUnits":{"inner":2,"middle":0,"outer":0}}},{"geometry":{"type":"Point","coordinates":[53.288,-9.03]},"type":"Feature","id":"node/582043319","properties":{"name":"Galway","wealth":4,"population":50000,"neighborhoodDensity":1,"city3s":0,"city4s":1,"city5s":0,"citySprawl":1,"ringUnits":{"inner":1,"middle":0,"outer":0}}},{"geometry":{"type":"Point","coordinates":[41.338,16.29]},"type":"Feature","id":"node/566812342","properties":{"name":"Barletta","wealth":1,"population":50000,"neighborhoodDensity":1,"city3s":0,"city4s":1,"city5s":0,"citySprawl":1,"ringUnits":{"inner":1,"middle":0,"outer":0}}},{"geometry":{"type":"Point","coordinates":[48.738,21.25]},"type":"Feature","id":"node/530544488","properties":{"name":"Košice","is_in":"Košice,Košický kraj,Východné Slovensko,Slovensko","wealth":5,"population":90646,"neighborhoodDensity":3,"city3s":0,"city4s":0,"city5s":3,"citySprawl":2,"ringUnits":{"inner":3,"middle":0,"outer":0}}},{"geometry":{"type":"Point","coordinates":[48.338,18.09]},"type":"Feature","id":"node/530544371","properties":{"name":"Nitra","is_in":"Slovakia","ele":"140","country":"Slovakia","region":"Central Europe","wealth":2,"population":50000,"neighborhoodDensity":1,"city3s":0,"city4s":1,"city5s":0,"citySprawl":3,"ringUnits":{"inner":1,"middle":0,"outer":0}}},{"geometry":{"type":"Point","coordinates":[48.163,17.11]},"type":"Feature","id":"node/530544342","properties":{"name":"Bratislava","is_in":"Slovakia","country":"Slovakia","region":"Central Europe","wealth":2,"population":137901,"neighborhoodDensity":3,"city3s":0,"city4s":0,"city5s":5,"citySprawl":2,"ringUnits":{"inner":5,"middle":0,"outer":0}}},{"geometry":{"type":"Point","coordinates":[43.563,-5.65]},"type":"Feature","id":"node/529391484","properties":{"name":"Gijón/Xixón","is_in":"Spain","ele":"7","country":"Spain","region":"Iberian Peninsula","wealth":3,"population":101969,"neighborhoodDensity":1,"city3s":1,"city4s":0,"city5s":0,"citySprawl":1,"ringUnits":{"inner":1,"middle":0,"outer":0}}},{"geometry":{"type":"Point","coordinates":[41.788,19.65]},"type":"Feature","id":"node/503688922","properties":{"name":"Lezhë","is_in":"Albania","country":"Albania","region":"The Balkans","wealth":1,"population":50000,"neighborhoodDensity":3,"city3s":0,"city4s":0,"city5s":2,"citySprawl":1,"ringUnits":{"inner":2,"middle":0,"outer":0}}},{"geometry":{"type":"Point","coordinates":[43.363,-5.83]},"type":"Feature","id":"node/493395619","properties":{"name":"Oviedo","is_in":"Spain","ele":"231","country":"Spain","region":"Iberian Peninsula","wealth":3,"population":85821,"neighborhoodDensity":2,"city3s":0,"city4s":0,"city5s":3,"citySprawl":2,"ringUnits":{"inner":3,"middle":0,"outer":0}}},{"geometry":{"type":"Point","coordinates":[42.088,20.43]},"type":"Feature","id":"node/470406312","properties":{"name":"Kukës","wealth":5,"population":25000,"neighborhoodDensity":1,"city3s":0,"city4s":0,"city5s":1,"citySprawl":1,"ringUnits":{"inner":1,"middle":0,"outer":0}}},{"geometry":{"type":"Point","coordinates":[35.813,7.39]},"type":"Feature","id":"node/442688335","properties":{"name":"Aïn Beïda","is_in":"Aïn Beida, Oum El Bouaghi, Algeria","country":"Algeria","region":"North Africa","wealth":1,"population":56352,"neighborhoodDensity":1,"city3s":0,"city4s":1,"city5s":0,"citySprawl":1,"ringUnits":{"inner":1,"middle":0,"outer":0}}},{"geometry":{"type":"Point","coordinates":[34.138,2.11]},"type":"Feature","id":"node/441464361","properties":{"name":"Aflou","is_in":"Aflou, Laghouat, Algeria","country":"Algeria","region":"North Africa","wealth":1,"population":50706,"neighborhoodDensity":3,"city3s":0,"city4s":0,"city5s":2,"citySprawl":3,"ringUnits":{"inner":2,"middle":0,"outer":0}}},{"geometry":{"type":"Point","coordinates":[34.863,-1.71]},"type":"Feature","id":"node/439911514","properties":{"name":"Maghnia","is_in":"Algeria","country":"Algeria","region":"North Africa","wealth":1,"population":55008,"neighborhoodDensity":2,"city3s":0,"city4s":0,"city5s":2,"citySprawl":1,"ringUnits":{"inner":2,"middle":0,"outer":0}}},{"geometry":{"type":"Point","coordinates":[40.838,14.25]},"type":"Feature","id":"node/428339558","properties":{"name":"Naples","ele":"17","wealth":1,"population":245452,"neighborhoodDensity":3,"city3s":0,"city4s":1,"city5s":7,"citySprawl":2,"ringUnits":{"inner":7,"middle":1,"outer":0}}},{"geometry":{"type":"Point","coordinates":[52.238,21.01]},"type":"Feature","id":"node/428339515","properties":{"name":"Warsaw","ele":"100","wealth":2,"population":368837,"neighborhoodDensity":3,"city3s":1,"city4s":1,"city5s":8,"citySprawl":2,"ringUnits":{"inner":8,"middle":2,"outer":0}}},{"geometry":{"type":"Point","coordinates":[53.688,23.85]},"type":"Feature","id":"node/428339511","properties":{"name":"Hrodna","wealth":4,"population":123738,"neighborhoodDensity":2,"city3s":0,"city4s":1,"city5s":2,"citySprawl":1,"ringUnits":{"inner":3,"middle":0,"outer":0}}},{"geometry":{"type":"Point","coordinates":[48.288,25.95]},"type":"Feature","id":"node/428339505","properties":{"name":"Chernivtsi","is_in":"Чернівецька область","wealth":4,"population":99241,"neighborhoodDensity":3,"city3s":0,"city4s":0,"city5s":3,"citySprawl":3,"ringUnits":{"inner":3,"middle":0,"outer":0}}},{"geometry":{"type":"Point","coordinates":[52.663,-8.63]},"type":"Feature","id":"node/428339453","properties":{"name":"Limerick","is_in":"County Limerick","wealth":5,"population":50000,"neighborhoodDensity":1,"city3s":0,"city4s":1,"city5s":0,"citySprawl":1,"ringUnits":{"inner":1,"middle":0,"outer":0}}},{"geometry":{"type":"Point","coordinates":[36.913,30.71]},"type":"Feature","id":"node/428039517","properties":{"name":"Antalya","is_in":"Turkey","country":"Turkey","region":"Turkey","wealth":2,"population":250230,"neighborhoodDensity":1,"city3s":2,"city4s":1,"city5s":0,"citySprawl":3,"ringUnits":{"inner":3,"middle":0,"outer":0}}},{"geometry":{"type":"Point","coordinates":[38.438,27.15]},"type":"Feature","id":"node/428039507","properties":{"name":"Izmir","is_in":"Turkey","country":"Turkey","region":"Turkey","wealth":2,"population":511371,"neighborhoodDensity":1,"city3s":5,"city4s":0,"city5s":0,"citySprawl":1,"ringUnits":{"inner":4,"middle":1,"outer":0}}},{"geometry":{"type":"Point","coordinates":[33.563,-0.27]},"type":"Feature","id":"node/424101403","properties":{"name":"Mecheria","is_in":"Algeria","country":"Algeria","region":"North Africa","wealth":1,"population":50822,"neighborhoodDensity":2,"city3s":0,"city4s":0,"city5s":2,"citySprawl":2,"ringUnits":{"inner":2,"middle":0,"outer":0}}},{"geometry":{"type":"Point","coordinates":[35.588,-5.37]},"type":"Feature","id":"node/421432226","properties":{"name":"Tétouan","is_in":"Morocco","country":"Morocco","region":"North Africa","wealth":1,"population":112867,"neighborhoodDensity":1,"city3s":1,"city4s":0,"city5s":0,"citySprawl":1,"ringUnits":{"inner":1,"middle":0,"outer":0}}},{"geometry":{"type":"Point","coordinates":[51.113,17.05]},"type":"Feature","id":"node/418392093","properties":{"name":"Wrocław","wealth":5,"population":181903,"neighborhoodDensity":3,"city3s":0,"city4s":1,"city5s":5,"citySprawl":1,"ringUnits":{"inner":4,"middle":1,"outer":1}}},{"geometry":{"type":"Point","coordinates":[41.738,22.21]},"type":"Feature","id":"node/417840346","properties":{"name":"Shtip","is_in":"Macedonia","country":"Macedonia","region":"The Balkans","wealth":1,"population":50000,"neighborhoodDensity":1,"city3s":0,"city4s":1,"city5s":0,"citySprawl":3,"ringUnits":{"inner":1,"middle":0,"outer":0}}},{"geometry":{"type":"Point","coordinates":[41.938,22.43]},"type":"Feature","id":"node/417839656","properties":{"name":"Kochani","is_in":"Macedonia","country":"Macedonia","region":"The Balkans","wealth":1,"population":25000,"neighborhoodDensity":2,"city3s":0,"city4s":0,"city5s":1,"citySprawl":3,"ringUnits":{"inner":1,"middle":0,"outer":0}}},{"geometry":{"type":"Point","coordinates":[34.063,-6.81]},"type":"Feature","id":"node/414081770","properties":{"name":"Salé ⵙⵍⴰ سلا","is_in":"Morocco","country":"Morocco","region":"North Africa","wealth":1,"population":250000,"neighborhoodDensity":1,"city3s":2,"city4s":1,"city5s":0,"citySprawl":1,"ringUnits":{"inner":3,"middle":0,"outer":0}}},{"geometry":{"type":"Point","coordinates":[49.188,-0.35]},"type":"Feature","id":"node/412476714","properties":{"name":"Caen","is_in":"France","country":"France","region":"France","wealth":4,"population":53089,"neighborhoodDensity":1,"city3s":0,"city4s":1,"city5s":0,"citySprawl":3,"ringUnits":{"inner":1,"middle":0,"outer":0}}},{"geometry":{"type":"Point","coordinates":[45.413,11.89]},"type":"Feature","id":"node/406747508","properties":{"name":"Padua","ele":"12","wealth":1,"population":84095,"neighborhoodDensity":2,"city3s":0,"city4s":0,"city5s":3,"citySprawl":2,"ringUnits":{"inner":3,"middle":0,"outer":0}}},{"geometry":{"type":"Point","coordinates":[41.363,21.57]},"type":"Feature","id":"node/392394718","properties":{"name":"Prilep","is_in":"Macedonia","country":"Macedonia","region":"The Balkans","wealth":1,"population":50000,"neighborhoodDensity":2,"city3s":0,"city4s":0,"city5s":2,"citySprawl":2,"ringUnits":{"inner":2,"middle":0,"outer":0}}},{"geometry":{"type":"Point","coordinates":[34.938,-2.31]},"type":"Feature","id":"node/391562106","properties":{"name":"Berkane ⴱⴻⵔⴽⴰⵏ بركان","is_in":"Morocco","country":"Morocco","region":"North Africa","wealth":1,"population":53185,"neighborhoodDensity":1,"city3s":0,"city4s":1,"city5s":0,"citySprawl":1,"ringUnits":{"inner":1,"middle":0,"outer":0}}},{"geometry":{"type":"Point","coordinates":[35.263,-3.93]},"type":"Feature","id":"node/391512701","properties":{"name":"Al Hoceima-ⵍⵃⵓⵙⵉⵎⴰ-الحسيمة","is_in":"Morocco","country":"Morocco","region":"North Africa","wealth":1,"population":57928,"neighborhoodDensity":1,"city3s":0,"city4s":1,"city5s":0,"citySprawl":1,"ringUnits":{"inner":1,"middle":0,"outer":0}}},{"geometry":{"type":"Point","coordinates":[44.338,23.81]},"type":"Feature","id":"node/390384649","properties":{"name":"Craiova","is_in":"România","country":"Romania","region":"The Balkans","wealth":2,"population":99983,"neighborhoodDensity":2,"city3s":0,"city4s":0,"city5s":3,"citySprawl":2,"ringUnits":{"inner":3,"middle":0,"outer":0}}},{"geometry":{"type":"Point","coordinates":[39.838,-7.49]},"type":"Feature","id":"node/375589183","properties":{"name":"Castelo Branco","wealth":1,"population":50000,"neighborhoodDensity":2,"city3s":0,"city4s":0,"city5s":2,"citySprawl":2,"ringUnits":{"inner":2,"middle":0,"outer":0}}},{"geometry":{"type":"Point","coordinates":[42.138,21.73]},"type":"Feature","id":"node/371046021","properties":{"name":"Kumanovo","is_in":"Macedonia","country":"Macedonia","region":"The Balkans","wealth":1,"population":51735,"neighborhoodDensity":1,"city3s":0,"city4s":1,"city5s":0,"citySprawl":1,"ringUnits":{"inner":1,"middle":0,"outer":0}}},{"geometry":{"type":"Point","coordinates":[51.388,6.17]},"type":"Feature","id":"node/369789680","properties":{"name":"Venlo","is_in":"The Netherlands","country":"The Netherlands","region":"Low Countries","wealth":4,"population":50129,"neighborhoodDensity":3,"city3s":0,"city4s":0,"city5s":2,"citySprawl":3,"ringUnits":{"inner":2,"middle":0,"outer":0}}},{"geometry":{"type":"Point","coordinates":[43.988,21.27]},"type":"Feature","id":"node/367764183","properties":{"name":"Jagodina","is_in":"Serbia","country":"Serbia","region":"The Balkans","wealth":1,"population":25000,"neighborhoodDensity":1,"city3s":0,"city4s":0,"city5s":1,"citySprawl":3,"ringUnits":{"inner":1,"middle":0,"outer":0}}},{"geometry":{"type":"Point","coordinates":[37.963,23.69]},"type":"Feature","id":"node/360317606","properties":{"name":"Moschato","is_in":"Moschato municipality,Attika prefecture,Greece","country":"Greece","region":"The Balkans","wealth":3,"population":25000,"neighborhoodDensity":2,"city3s":0,"city4s":0,"city5s":1,"citySprawl":3,"ringUnits":{"inner":1,"middle":0,"outer":0}}},{"geometry":{"type":"Point","coordinates":[38.013,23.69]},"type":"Feature","id":"node/360095668","properties":{"name":"Peristeri","wealth":1,"population":65358,"neighborhoodDensity":1,"city3s":0,"city4s":1,"city5s":0,"citySprawl":3,"ringUnits":{"inner":1,"middle":0,"outer":0}}},{"geometry":{"type":"Point","coordinates":[38.038,23.73]},"type":"Feature","id":"node/360093684","properties":{"name":"Agii Anargyri","is_in":"Agii Anargyri municipality,Athina prefecture,Attiki,Greece,EU","country":"Greece","region":"The Balkans","wealth":3,"population":25000,"neighborhoodDensity":1,"city3s":0,"city4s":0,"city5s":1,"citySprawl":2,"ringUnits":{"inner":1,"middle":0,"outer":0}}},{"geometry":{"type":"Point","coordinates":[38.063,23.69]},"type":"Feature","id":"node/360093641","properties":{"name":"Petroupoli","is_in":"Petroupoli municipality,Athina prefecture,Attiki,Greece,EU","country":"Greece","region":"The Balkans","wealth":3,"population":50000,"neighborhoodDensity":2,"city3s":0,"city4s":0,"city5s":2,"citySprawl":3,"ringUnits":{"inner":2,"middle":0,"outer":0}}},{"geometry":{"type":"Point","coordinates":[44.688,20.93]},"type":"Feature","id":"node/359219458","properties":{"name":"Smederevo","is_in":"Serbia","country":"Serbia","region":"The Balkans","wealth":1,"population":50000,"neighborhoodDensity":3,"city3s":0,"city4s":0,"city5s":2,"citySprawl":2,"ringUnits":{"inner":2,"middle":0,"outer":0}}},{"geometry":{"type":"Point","coordinates":[38.013,23.87]},"type":"Feature","id":"node/358794813","properties":{"name":"Gerakas","is_in":"Gerakas municipality,Anatoliki Attiki prefecture,Attiki,Greece,EU","country":"Greece","region":"The Balkans","wealth":3,"population":25000,"neighborhoodDensity":3,"city3s":0,"city4s":0,"city5s":1,"citySprawl":3,"ringUnits":{"inner":1,"middle":0,"outer":0}}},{"geometry":{"type":"Point","coordinates":[52.738,15.25]},"type":"Feature","id":"node/357913636","properties":{"name":"Gorzów Wielkopolski","ele":"19","wealth":5,"population":58225,"neighborhoodDensity":3,"city3s":0,"city4s":0,"city5s":2,"citySprawl":2,"ringUnits":{"inner":2,"middle":0,"outer":0}}},{"geometry":{"type":"Point","coordinates":[43.738,20.69]},"type":"Feature","id":"node/353439335","properties":{"name":"Kraljevo","is_in":"Serbia","country":"Serbia","region":"The Balkans","wealth":1,"population":50000,"neighborhoodDensity":3,"city3s":0,"city4s":0,"city5s":2,"citySprawl":3,"ringUnits":{"inner":2,"middle":0,"outer":0}}},{"geometry":{"type":"Point","coordinates":[41.188,19.57]},"type":"Feature","id":"node/347462790","properties":{"name":"Kavaje","is_in":"Albania","country":"Albania","region":"The Balkans","wealth":1,"population":50000,"neighborhoodDensity":3,"city3s":0,"city4s":0,"city5s":2,"citySprawl":2,"ringUnits":{"inner":2,"middle":0,"outer":0}}},{"geometry":{"type":"Point","coordinates":[43.138,20.53]},"type":"Feature","id":"node/338659082","properties":{"name":"Novi Pazar","wealth":4,"population":50000,"neighborhoodDensity":2,"city3s":0,"city4s":0,"city5s":2,"citySprawl":1,"ringUnits":{"inner":2,"middle":0,"outer":0}}},{"geometry":{"type":"Point","coordinates":[48.488,35.05]},"type":"Feature","id":"node/337597818","properties":{"name":"Dnipro","wealth":3,"population":247169,"neighborhoodDensity":2,"city3s":1,"city4s":1,"city5s":3,"citySprawl":3,"ringUnits":{"inner":5,"middle":0,"outer":0}}},{"geometry":{"type":"Point","coordinates":[48.913,38.45]},"type":"Feature","id":"node/337582086","properties":{"name":"Lysychansk","is_in":"Луганська обл., Україна","wealth":2,"population":51969,"neighborhoodDensity":2,"city3s":0,"city4s":0,"city5s":2,"citySprawl":3,"ringUnits":{"inner":2,"middle":0,"outer":0}}},{"geometry":{"type":"Point","coordinates":[48.963,38.51]},"type":"Feature","id":"node/337579368","properties":{"name":"Sievierodonetsk","wealth":5,"population":53652,"neighborhoodDensity":1,"city3s":0,"city4s":1,"city5s":0,"citySprawl":1,"ringUnits":{"inner":1,"middle":0,"outer":0}}},{"geometry":{"type":"Point","coordinates":[54.013,38.31]},"type":"Feature","id":"node/336306378","properties":{"name":"Novomoskovsk","wealth":2,"population":59161,"neighborhoodDensity":2,"city3s":0,"city4s":0,"city5s":2,"citySprawl":2,"ringUnits":{"inner":2,"middle":0,"outer":0}}},{"geometry":{"type":"Point","coordinates":[50.988,39.51]},"type":"Feature","id":"node/336140851","properties":{"name":"Liski","wealth":4,"population":50000,"neighborhoodDensity":1,"city3s":0,"city4s":1,"city5s":0,"citySprawl":3,"ringUnits":{"inner":1,"middle":0,"outer":0}}},{"geometry":{"type":"Point","coordinates":[51.313,37.85]},"type":"Feature","id":"node/336140673","properties":{"name":"Stary Oskol","wealth":1,"population":87104,"neighborhoodDensity":1,"city3s":0,"city4s":1,"city5s":1,"citySprawl":3,"ringUnits":{"inner":2,"middle":0,"outer":0}}},{"geometry":{"type":"Point","coordinates":[47.113,17.93]},"type":"Feature","id":"node/334943106","properties":{"name":"Veszprém","is_in":"Hungary","country":"Hungary","region":"Central Europe","wealth":2,"population":50000,"neighborhoodDensity":2,"city3s":0,"city4s":0,"city5s":2,"citySprawl":2,"ringUnits":{"inner":2,"middle":0,"outer":0}}},{"geometry":{"type":"Point","coordinates":[41.738,21.79]},"type":"Feature","id":"node/324836987","properties":{"name":"Veles","is_in":"Macedonia","country":"Macedonia","region":"The Balkans","wealth":1,"population":50000,"neighborhoodDensity":1,"city3s":0,"city4s":1,"city5s":0,"citySprawl":1,"ringUnits":{"inner":1,"middle":0,"outer":0}}},{"geometry":{"type":"Point","coordinates":[44.188,28.65]},"type":"Feature","id":"node/317989136","properties":{"name":"Constanța","is_in":"România","country":"Romania","region":"The Balkans","wealth":2,"population":103679,"neighborhoodDensity":3,"city3s":0,"city4s":0,"city5s":4,"citySprawl":2,"ringUnits":{"inner":4,"middle":0,"outer":0}}},{"geometry":{"type":"Point","coordinates":[36.688,3.17]},"type":"Feature","id":"node/316393181","properties":{"name":"Les Eucalyptus","is_in":"Algeria","country":"Algeria","region":"North Africa","wealth":1,"population":55501,"neighborhoodDensity":3,"city3s":0,"city4s":0,"city5s":2,"citySprawl":1,"ringUnits":{"inner":2,"middle":0,"outer":0}}},{"geometry":{"type":"Point","coordinates":[44.013,20.93]},"type":"Feature","id":"node/313853846","properties":{"name":"Kragujevac","is_in":"Serbia","country":"Serbia","region":"The Balkans","wealth":1,"population":78309,"neighborhoodDensity":3,"city3s":0,"city4s":0,"city5s":3,"citySprawl":1,"ringUnits":{"inner":3,"middle":0,"outer":0}}},{"geometry":{"type":"Point","coordinates":[44.288,19.89]},"type":"Feature","id":"node/307649772","properties":{"name":"Valjevo","is_in":"Serbia","country":"Serbia","region":"The Balkans","wealth":1,"population":50000,"neighborhoodDensity":2,"city3s":0,"city4s":0,"city5s":2,"citySprawl":2,"ringUnits":{"inner":2,"middle":0,"outer":0}}},{"geometry":{"type":"Point","coordinates":[40.238,-3.77]},"type":"Feature","id":"node/306620202","properties":{"name":"Parla","is_in":"Spain","ele":"645","country":"Spain","region":"Iberian Peninsula","wealth":3,"population":58647,"neighborhoodDensity":3,"city3s":0,"city4s":0,"city5s":2,"citySprawl":3,"ringUnits":{"inner":2,"middle":0,"outer":0}}},{"geometry":{"type":"Point","coordinates":[40.338,-3.75]},"type":"Feature","id":"node/306524644","properties":{"name":"Leganés","is_in":"Spain","ele":"667","country":"Spain","region":"Iberian Peninsula","wealth":3,"population":77441,"neighborhoodDensity":1,"city3s":0,"city4s":1,"city5s":1,"citySprawl":3,"ringUnits":{"inner":2,"middle":0,"outer":0}}},{"geometry":{"type":"Point","coordinates":[40.338,-3.85]},"type":"Feature","id":"node/306524430","properties":{"name":"Móstoles","is_in":"Spain","ele":"660","country":"Spain","region":"Iberian Peninsula","wealth":3,"population":82988,"neighborhoodDensity":2,"city3s":0,"city4s":0,"city5s":3,"citySprawl":1,"ringUnits":{"inner":3,"middle":0,"outer":0}}},{"geometry":{"type":"Point","coordinates":[40.363,-3.81]},"type":"Feature","id":"node/306524300","properties":{"name":"Alcorcón","is_in":"Spain","ele":"711","country":"Spain","region":"Iberian Peninsula","wealth":3,"population":72384,"neighborhoodDensity":2,"city3s":0,"city4s":0,"city5s":2,"citySprawl":2,"ringUnits":{"inner":2,"middle":0,"outer":0}}},{"geometry":{"type":"Point","coordinates":[35.138,33.95]},"type":"Feature","id":"node/306213529","properties":{"name":"Famagusta","is_in":"Cyprus","country":"Cyprus","region":"Turkey","wealth":3,"population":50000,"neighborhoodDensity":1,"city3s":0,"city4s":1,"city5s":0,"citySprawl":2,"ringUnits":{"inner":1,"middle":0,"outer":0}}},{"geometry":{"type":"Point","coordinates":[40.288,-3.79]},"type":"Feature","id":"node/305072315","properties":{"name":"Fuenlabrada","is_in":"Spain","ele":"662","country":"Spain","region":"Iberian Peninsula","wealth":3,"population":80462,"neighborhoodDensity":3,"city3s":0,"city4s":0,"city5s":3,"citySprawl":2,"ringUnits":{"inner":3,"middle":0,"outer":0}}},{"geometry":{"type":"Point","coordinates":[43.313,-2.97]},"type":"Feature","id":"node/301424404","properties":{"name":"Barakaldo","is_in":"Spain","ele":"35","country":"Spain","region":"Iberian Peninsula","wealth":3,"population":50007,"neighborhoodDensity":1,"city3s":0,"city4s":1,"city5s":0,"citySprawl":1,"ringUnits":{"inner":1,"middle":0,"outer":0}}},{"geometry":{"type":"Point","coordinates":[36.688,3.11]},"type":"Feature","id":"node/299837073","properties":{"name":"Baraki","is_in":"Algeria","country":"Algeria","region":"North Africa","wealth":1,"population":55591,"neighborhoodDensity":1,"city3s":0,"city4s":1,"city5s":0,"citySprawl":3,"ringUnits":{"inner":1,"middle":0,"outer":0}}},{"geometry":{"type":"Point","coordinates":[35.388,5.39]},"type":"Feature","id":"node/299833893","properties":{"name":"Barika","is_in":"Barika, Batna, Algeria","country":"Algeria","region":"North Africa","wealth":1,"population":70266,"neighborhoodDensity":1,"city3s":0,"city4s":1,"city5s":0,"citySprawl":3,"ringUnits":{"inner":1,"middle":0,"outer":0}}},{"geometry":{"type":"Point","coordinates":[35.763,0.57]},"type":"Feature","id":"node/299825178","properties":{"name":"Relizane","is_in":"Algeria","country":"Algeria","region":"North Africa","wealth":1,"population":60094,"neighborhoodDensity":1,"city3s":0,"city4s":1,"city5s":0,"citySprawl":1,"ringUnits":{"inner":1,"middle":0,"outer":0}}},{"geometry":{"type":"Point","coordinates":[36.488,7.45]},"type":"Feature","id":"node/299824735","properties":{"name":"Guelma","is_in":"Algeria","country":"Algeria","region":"North Africa","wealth":1,"population":68635,"neighborhoodDensity":2,"city3s":0,"city4s":0,"city5s":2,"citySprawl":2,"ringUnits":{"inner":2,"middle":0,"outer":0}}},{"geometry":{"type":"Point","coordinates":[34.863,0.17]},"type":"Feature","id":"node/299822267","properties":{"name":"Saïda","is_in":"Algeria","country":"Algeria","region":"North Africa","wealth":1,"population":59550,"neighborhoodDensity":1,"city3s":0,"city4s":1,"city5s":0,"citySprawl":1,"ringUnits":{"inner":1,"middle":0,"outer":0}}},{"geometry":{"type":"Point","coordinates":[35.438,7.15]},"type":"Feature","id":"node/299702563","properties":{"name":"Khenchela","is_in":"Algeria","country":"Algeria","region":"North Africa","wealth":1,"population":52961,"neighborhoodDensity":3,"city3s":0,"city4s":0,"city5s":2,"citySprawl":3,"ringUnits":{"inner":2,"middle":0,"outer":0}}},{"geometry":{"type":"Point","coordinates":[36.163,5.71]},"type":"Feature","id":"node/299701636","properties":{"name":"El Eulma","is_in":"El Eulma, Sétif, Algeria","country":"Algeria","region":"North Africa","wealth":1,"population":64947,"neighborhoodDensity":2,"city3s":0,"city4s":0,"city5s":2,"citySprawl":2,"ringUnits":{"inner":2,"middle":0,"outer":0}}},{"geometry":{"type":"Point","coordinates":[35.713,4.55]},"type":"Feature","id":"node/299700319","properties":{"name":"M'sila","is_in":"Algeria","country":"Algeria","region":"North Africa","wealth":1,"population":68425,"neighborhoodDensity":1,"city3s":0,"city4s":1,"city5s":0,"citySprawl":2,"ringUnits":{"inner":1,"middle":0,"outer":0}}},{"geometry":{"type":"Point","coordinates":[35.938,0.09]},"type":"Feature","id":"node/299699468","properties":{"name":"Mostaganem","is_in":"Algeria","country":"Algeria","region":"North Africa","wealth":1,"population":65045,"neighborhoodDensity":3,"city3s":0,"city4s":0,"city5s":2,"citySprawl":1,"ringUnits":{"inner":2,"middle":0,"outer":0}}},{"geometry":{"type":"Point","coordinates":[36.288,7.97]},"type":"Feature","id":"node/299698224","properties":{"name":"Souk Ahras","is_in":"Algeria","country":"Algeria","region":"North Africa","wealth":1,"population":68001,"neighborhoodDensity":3,"city3s":0,"city4s":0,"city5s":2,"citySprawl":1,"ringUnits":{"inner":2,"middle":0,"outer":0}}},{"geometry":{"type":"Point","coordinates":[36.888,6.91]},"type":"Feature","id":"node/299692217","properties":{"name":"Skikda","is_in":"Algeria","country":"Algeria","region":"North Africa","wealth":1,"population":81428,"neighborhoodDensity":1,"city3s":0,"city4s":1,"city5s":1,"citySprawl":3,"ringUnits":{"inner":2,"middle":0,"outer":0}}},{"geometry":{"type":"Point","coordinates":[35.388,1.33]},"type":"Feature","id":"node/299684626","properties":{"name":"Tiaret","is_in":"Algeria","country":"Algeria","region":"North Africa","wealth":1,"population":81525,"neighborhoodDensity":3,"city3s":0,"city4s":0,"city5s":3,"citySprawl":3,"ringUnits":{"inner":3,"middle":0,"outer":0}}},{"geometry":{"type":"Point","coordinates":[35.413,8.13]},"type":"Feature","id":"node/299683227","properties":{"name":"Tébessa","is_in":"Algeria","country":"Algeria","region":"North Africa","wealth":1,"population":80182,"neighborhoodDensity":1,"city3s":0,"city4s":1,"city5s":1,"citySprawl":2,"ringUnits":{"inner":2,"middle":0,"outer":0}}},{"geometry":{"type":"Point","coordinates":[34.863,5.73]},"type":"Feature","id":"node/299682811","properties":{"name":"Biskra","is_in":"Algeria","country":"Algeria","region":"North Africa","wealth":1,"population":82751,"neighborhoodDensity":1,"city3s":0,"city4s":1,"city5s":1,"citySprawl":3,"ringUnits":{"inner":2,"middle":0,"outer":0}}},{"geometry":{"type":"Point","coordinates":[35.213,-0.63]},"type":"Feature","id":"node/299682062","properties":{"name":"Sidi Bel Abbes","is_in":"Algeria","country":"Algeria","region":"North Africa","wealth":1,"population":84802,"neighborhoodDensity":2,"city3s":0,"city4s":0,"city5s":3,"citySprawl":3,"ringUnits":{"inner":3,"middle":0,"outer":0}}},{"geometry":{"type":"Point","coordinates":[34.688,3.27]},"type":"Feature","id":"node/299681006","properties":{"name":"Djelfa","is_in":"Algeria","ele":"1205","country":"Algeria","region":"North Africa","wealth":1,"population":105042,"neighborhoodDensity":3,"city3s":0,"city4s":0,"city5s":4,"citySprawl":2,"ringUnits":{"inner":4,"middle":0,"outer":0}}},{"geometry":{"type":"Point","coordinates":[36.188,1.35]},"type":"Feature","id":"node/299680100","properties":{"name":"Chlef","is_in":"Algeria","country":"Algeria","region":"North Africa","wealth":1,"population":74999,"neighborhoodDensity":2,"city3s":0,"city4s":0,"city5s":2,"citySprawl":3,"ringUnits":{"inner":2,"middle":0,"outer":0}}},{"geometry":{"type":"Point","coordinates":[35.563,6.19]},"type":"Feature","id":"node/299619085","properties":{"name":"Batna","is_in":"Algeria","country":"Algeria","region":"North Africa","wealth":1,"population":105401,"neighborhoodDensity":1,"city3s":1,"city4s":0,"city5s":0,"citySprawl":2,"ringUnits":{"inner":1,"middle":0,"outer":0}}},{"geometry":{"type":"Point","coordinates":[36.913,7.75]},"type":"Feature","id":"node/299618513","properties":{"name":"Annaba","is_in":"Algeria","country":"Algeria","region":"North Africa","wealth":1,"population":96811,"neighborhoodDensity":1,"city3s":0,"city4s":1,"city5s":1,"citySprawl":3,"ringUnits":{"inner":2,"middle":0,"outer":0}}},{"geometry":{"type":"Point","coordinates":[36.788,3.07]},"type":"Feature","id":"node/299617915","properties":{"name":"Algiers","is_in":"Algeria","ele":"10","country":"Algeria","region":"North Africa","wealth":1,"population":589979,"neighborhoodDensity":2,"city3s":2,"city4s":3,"city5s":9,"citySprawl":2,"ringUnits":{"inner":9,"middle":5,"outer":0}}},{"geometry":{"type":"Point","coordinates":[42.488,21.47]},"type":"Feature","id":"node/299448609","properties":{"name":"Gjilan","wealth":3,"population":60064,"neighborhoodDensity":2,"city3s":0,"city4s":0,"city5s":2,"citySprawl":3,"ringUnits":{"inner":2,"middle":0,"outer":0}}},{"geometry":{"type":"Point","coordinates":[41.513,20.97]},"type":"Feature","id":"node/299302852","properties":{"name":"Kichevo","is_in":"Kičevo, Macedonia","country":"Macedonia","region":"The Balkans","wealth":1,"population":25000,"neighborhoodDensity":3,"city3s":0,"city4s":0,"city5s":1,"citySprawl":3,"ringUnits":{"inner":1,"middle":0,"outer":0}}},{"geometry":{"type":"Point","coordinates":[41.513,26.53]},"type":"Feature","id":"node/299263482","properties":{"name":"Orestiada","is_in":"Orestiada municipality,Evros prefecture,Anatoliki Makedonia ke Thraki,Greece","country":"Greece","region":"The Balkans","wealth":3,"population":25000,"neighborhoodDensity":1,"city3s":0,"city4s":0,"city5s":1,"citySprawl":3,"ringUnits":{"inner":1,"middle":0,"outer":0}}},{"geometry":{"type":"Point","coordinates":[34.038,-6.83]},"type":"Feature","id":"node/299120862","properties":{"name":"Rabat","is_in":"Morocco","ele":"20","country":"Morocco","region":"North Africa","wealth":1,"population":354776,"neighborhoodDensity":2,"city3s":1,"city4s":2,"city5s":6,"citySprawl":3,"ringUnits":{"inner":9,"middle":0,"outer":0}}},{"geometry":{"type":"Point","coordinates":[52.413,4.65]},"type":"Feature","id":"node/296054949","properties":{"name":"Haarlem","is_in":"The Netherlands","country":"The Netherlands","region":"Low Countries","wealth":4,"population":68550,"neighborhoodDensity":2,"city3s":0,"city4s":0,"city5s":2,"citySprawl":3,"ringUnits":{"inner":2,"middle":0,"outer":0}}},{"geometry":{"type":"Point","coordinates":[53.488,-2.23]},"type":"Feature","id":"node/294001443","properties":{"name":"Manchester","is_in":"United Kingdom","ele":"38","country":"United Kingdom","region":"United Kingdom","wealth":4,"population":154670,"neighborhoodDensity":1,"city3s":1,"city4s":1,"city5s":0,"citySprawl":2,"ringUnits":{"inner":2,"middle":0,"outer":0}}},{"geometry":{"type":"Point","coordinates":[41.813,20.91]},"type":"Feature","id":"node/293655611","properties":{"name":"Gostivar","is_in":"Gostivar, Macedonia","country":"Macedonia","region":"The Balkans","wealth":1,"population":25000,"neighborhoodDensity":2,"city3s":0,"city4s":0,"city5s":1,"citySprawl":2,"ringUnits":{"inner":1,"middle":0,"outer":0}}},{"geometry":{"type":"Point","coordinates":[36.763,5.07]},"type":"Feature","id":"node/291964314","properties":{"name":"Bejaia","is_in":"Algeria","country":"Algeria","region":"North Africa","wealth":1,"population":74814,"neighborhoodDensity":3,"city3s":0,"city4s":0,"city5s":2,"citySprawl":2,"ringUnits":{"inner":2,"middle":0,"outer":0}}},{"geometry":{"type":"Point","coordinates":[36.088,4.77]},"type":"Feature","id":"node/291964008","properties":{"name":"Bordj Bou Arreridjj","is_in":"Algeria","country":"Algeria","region":"North Africa","wealth":1,"population":71958,"neighborhoodDensity":1,"city3s":0,"city4s":1,"city5s":0,"citySprawl":1,"ringUnits":{"inner":1,"middle":0,"outer":0}}},{"geometry":{"type":"Point","coordinates":[35.913,-5.29]},"type":"Feature","id":"node/291768008","properties":{"name":"Ceuta","is_in":"Spain","ele":"20","country":"Spain","region":"Iberian Peninsula","wealth":3,"population":50000,"neighborhoodDensity":1,"city3s":0,"city4s":1,"city5s":0,"citySprawl":2,"ringUnits":{"inner":1,"middle":0,"outer":0}}},{"geometry":{"type":"Point","coordinates":[45.813,24.17]},"type":"Feature","id":"node/290485693","properties":{"name":"Sibiu","is_in":"Romania","country":"Romania","region":"The Balkans","wealth":2,"population":65528,"neighborhoodDensity":3,"city3s":0,"city4s":0,"city5s":2,"citySprawl":2,"ringUnits":{"inner":2,"middle":0,"outer":0}}},{"geometry":{"type":"Point","coordinates":[39.588,2.67]},"type":"Feature","id":"node/289643197","properties":{"name":"Palma","is_in":"Spain","ele":"24","country":"Spain","region":"Iberian Peninsula","wealth":3,"population":132985,"neighborhoodDensity":2,"city3s":0,"city4s":1,"city5s":3,"citySprawl":3,"ringUnits":{"inner":4,"middle":0,"outer":0}}},{"geometry":{"type":"Point","coordinates":[34.038,-5.01]},"type":"Feature","id":"node/289035432","properties":{"name":"Fez","is_in":"Morocco","country":"Morocco","region":"North Africa","wealth":1,"population":401308,"neighborhoodDensity":2,"city3s":2,"city4s":2,"city5s":4,"citySprawl":3,"ringUnits":{"inner":8,"middle":0,"outer":0}}},{"geometry":{"type":"Point","coordinates":[35.313,-2.93]},"type":"Feature","id":"node/289031151","properties":{"name":"Melilla","is_in":"Spain","ele":"0","country":"Spain","region":"Iberian Peninsula","wealth":3,"population":50000,"neighborhoodDensity":1,"city3s":0,"city4s":1,"city5s":0,"citySprawl":2,"ringUnits":{"inner":1,"middle":0,"outer":0}}},{"geometry":{"type":"Point","coordinates":[36.488,2.83]},"type":"Feature","id":"node/288418022","properties":{"name":"Blida","is_in":"Algeria","country":"Algeria","region":"North Africa","wealth":1,"population":115619,"neighborhoodDensity":3,"city3s":0,"city4s":0,"city5s":4,"citySprawl":3,"ringUnits":{"inner":4,"middle":0,"outer":0}}},{"geometry":{"type":"Point","coordinates":[36.288,2.77]},"type":"Feature","id":"node/288417925","properties":{"name":"Médéa","is_in":"Algeria","country":"Algeria","region":"North Africa","wealth":1,"population":62737,"neighborhoodDensity":1,"city3s":0,"city4s":1,"city5s":0,"citySprawl":1,"ringUnits":{"inner":1,"middle":0,"outer":0}}},{"geometry":{"type":"Point","coordinates":[36.738,3.09]},"type":"Feature","id":"node/288387133","properties":{"name":"Kouba","is_in":"Algeria","country":"Algeria","region":"North Africa","wealth":1,"population":51634,"neighborhoodDensity":1,"city3s":0,"city4s":1,"city5s":0,"citySprawl":2,"ringUnits":{"inner":1,"middle":0,"outer":0}}},{"geometry":{"type":"Point","coordinates":[41.588,2.03]},"type":"Feature","id":"node/288139569","properties":{"name":"Terrassa","is_in":"Spain","ele":"281","country":"Spain","region":"Iberian Peninsula","wealth":3,"population":85519,"neighborhoodDensity":3,"city3s":0,"city4s":0,"city5s":3,"citySprawl":1,"ringUnits":{"inner":3,"middle":0,"outer":0}}},{"geometry":{"type":"Point","coordinates":[37.288,9.89]},"type":"Feature","id":"node/287544816","properties":{"name":"Bizerte","is_in":"Tunisia","country":"Tunisia","region":"North Africa","wealth":1,"population":54795,"neighborhoodDensity":1,"city3s":0,"city4s":1,"city5s":0,"citySprawl":3,"ringUnits":{"inner":1,"middle":0,"outer":0}}},{"geometry":{"type":"Point","coordinates":[33.888,10.11]},"type":"Feature","id":"node/287544603","properties":{"name":"Gabes","is_in":"Tunisia","country":"Tunisia","region":"North Africa","wealth":1,"population":55466,"neighborhoodDensity":3,"city3s":0,"city4s":0,"city5s":2,"citySprawl":3,"ringUnits":{"inner":2,"middle":0,"outer":0}}},{"geometry":{"type":"Point","coordinates":[35.688,10.11]},"type":"Feature","id":"node/287543904","properties":{"name":"Kairouan","is_in":"Tunisia","country":"Tunisia","region":"North Africa","wealth":1,"population":66382,"neighborhoodDensity":2,"city3s":0,"city4s":0,"city5s":2,"citySprawl":1,"ringUnits":{"inner":2,"middle":0,"outer":0}}},{"geometry":{"type":"Point","coordinates":[35.838,10.65]},"type":"Feature","id":"node/287543373","properties":{"name":"Sousse","is_in":"Tunisia","country":"Tunisia","region":"North Africa","wealth":1,"population":73343,"neighborhoodDensity":2,"city3s":0,"city4s":0,"city5s":2,"citySprawl":1,"ringUnits":{"inner":2,"middle":0,"outer":0}}},{"geometry":{"type":"Point","coordinates":[34.763,10.77]},"type":"Feature","id":"node/287001619","properties":{"name":"صفاقس","is_in":"Tunisia","country":"Tunisia","region":"North Africa","wealth":1,"population":150613,"neighborhoodDensity":3,"city3s":0,"city4s":1,"city5s":4,"citySprawl":1,"ringUnits":{"inner":4,"middle":1,"outer":0}}},{"geometry":{"type":"Point","coordinates":[38.913,22.45]},"type":"Feature","id":"node/286542728","properties":{"name":"Lamia","wealth":5,"population":50000,"neighborhoodDensity":3,"city3s":0,"city4s":0,"city5s":2,"citySprawl":2,"ringUnits":{"inner":2,"middle":0,"outer":0}}},{"geometry":{"type":"Point","coordinates":[37.638,22.73]},"type":"Feature","id":"node/286519134","properties":{"name":"Argos","is_in":"Argolida prefecture,Peloponnisos,Greece","country":"Greece","region":"The Balkans","wealth":3,"population":25000,"neighborhoodDensity":3,"city3s":0,"city4s":0,"city5s":1,"citySprawl":3,"ringUnits":{"inner":1,"middle":0,"outer":0}}},{"geometry":{"type":"Point","coordinates":[47.588,18.41]},"type":"Feature","id":"node/282420922","properties":{"name":"Tatabánya","is_in":"Hungary","country":"Hungary","region":"Central Europe","wealth":2,"population":50000,"neighborhoodDensity":3,"city3s":0,"city4s":0,"city5s":2,"citySprawl":3,"ringUnits":{"inner":2,"middle":0,"outer":0}}},{"geometry":{"type":"Point","coordinates":[38.088,23.75]},"type":"Feature","id":"node/280845658","properties":{"name":"Acharnes","is_in":"Athina prefecture,Attiki, Greece","country":"Greece","region":"The Balkans","wealth":3,"population":50000,"neighborhoodDensity":3,"city3s":0,"city4s":0,"city5s":2,"citySprawl":3,"ringUnits":{"inner":2,"middle":0,"outer":0}}},{"geometry":{"type":"Point","coordinates":[53.913,30.35]},"type":"Feature","id":"node/280028528","properties":{"name":"Mahilyow","wealth":1,"population":125870,"neighborhoodDensity":1,"city3s":1,"city4s":0,"city5s":1,"citySprawl":3,"ringUnits":{"inner":2,"middle":0,"outer":0}}},{"geometry":{"type":"Point","coordinates":[52.063,29.27]},"type":"Feature","id":"node/277491317","properties":{"name":"Mazyr","wealth":5,"population":54185,"neighborhoodDensity":1,"city3s":0,"city4s":1,"city5s":0,"citySprawl":1,"ringUnits":{"inner":1,"middle":0,"outer":0}}},{"geometry":{"type":"Point","coordinates":[53.163,8.23]},"type":"Feature","id":"node/277023297","properties":{"name":"Oldenburg","is_in":"Germany","ele":"4","country":"Germany","region":"Germany","wealth":4,"population":69536,"neighborhoodDensity":1,"city3s":0,"city4s":1,"city5s":0,"citySprawl":3,"ringUnits":{"inner":1,"middle":0,"outer":0}}},{"geometry":{"type":"Point","coordinates":[43.288,26.95]},"type":"Feature","id":"node/276708567","properties":{"name":"Shumen","is_in":"България","country":"Bulgaria","region":"The Balkans","wealth":1,"population":50000,"neighborhoodDensity":3,"city3s":0,"city4s":0,"city5s":2,"citySprawl":1,"ringUnits":{"inner":2,"middle":0,"outer":0}}},{"geometry":{"type":"Point","coordinates":[44.563,18.69]},"type":"Feature","id":"node/275005833","properties":{"name":"Tuzla","is_in":"Bosnia and Herzegovina","country":"Bosnia","region":"The Balkans","wealth":1,"population":56941,"neighborhoodDensity":2,"city3s":0,"city4s":0,"city5s":2,"citySprawl":2,"ringUnits":{"inner":2,"middle":0,"outer":0}}},{"geometry":{"type":"Point","coordinates":[35.238,4.19]},"type":"Feature","id":"node/274946937","properties":{"name":"Bou Saada","is_in":"Algeria","country":"Algeria","region":"North Africa","wealth":1,"population":58627,"neighborhoodDensity":1,"city3s":0,"city4s":1,"city5s":0,"citySprawl":1,"ringUnits":{"inner":1,"middle":0,"outer":0}}},{"geometry":{"type":"Point","coordinates":[48.763,37.59]},"type":"Feature","id":"node/274929523","properties":{"name":"Kramatorsk","wealth":2,"population":69277,"neighborhoodDensity":2,"city3s":0,"city4s":0,"city5s":2,"citySprawl":2,"ringUnits":{"inner":2,"middle":0,"outer":0}}},{"geometry":{"type":"Point","coordinates":[40.088,20.15]},"type":"Feature","id":"node/274323115","properties":{"name":"Gjirokastra","is_in":"Albania","country":"Albania","region":"The Balkans","wealth":1,"population":25000,"neighborhoodDensity":3,"city3s":0,"city4s":0,"city5s":1,"citySprawl":2,"ringUnits":{"inner":1,"middle":0,"outer":0}}},{"geometry":{"type":"Point","coordinates":[52.013,4.37]},"type":"Feature","id":"node/274247451","properties":{"name":"Delft","is_in":"The Netherlands","country":"The Netherlands","region":"Low Countries","wealth":4,"population":50357,"neighborhoodDensity":1,"city3s":0,"city4s":1,"city5s":0,"citySprawl":3,"ringUnits":{"inner":1,"middle":0,"outer":0}}},{"geometry":{"type":"Point","coordinates":[51.988,7.63]},"type":"Feature","id":"node/273510436","properties":{"name":"Münster","wealth":5,"population":107761,"neighborhoodDensity":2,"city3s":0,"city4s":1,"city5s":2,"citySprawl":1,"ringUnits":{"inner":3,"middle":0,"outer":0}}},{"geometry":{"type":"Point","coordinates":[42.013,24.89]},"type":"Feature","id":"node/273488997","properties":{"name":"Asenovgrad","is_in":"България","country":"Bulgaria","region":"The Balkans","wealth":1,"population":50000,"neighborhoodDensity":3,"city3s":0,"city4s":0,"city5s":2,"citySprawl":2,"ringUnits":{"inner":2,"middle":0,"outer":0}}},{"geometry":{"type":"Point","coordinates":[42.063,25.61]},"type":"Feature","id":"node/273488963","properties":{"name":"Dimitrovgrad","is_in":"България","country":"Bulgaria","region":"The Balkans","wealth":1,"population":50000,"neighborhoodDensity":1,"city3s":0,"city4s":1,"city5s":0,"citySprawl":3,"ringUnits":{"inner":1,"middle":0,"outer":0}}},{"geometry":{"type":"Point","coordinates":[42.638,25.41]},"type":"Feature","id":"node/273488837","properties":{"name":"Kazanlak","is_in":"България","country":"Bulgaria","region":"The Balkans","wealth":1,"population":50000,"neighborhoodDensity":3,"city3s":0,"city4s":0,"city5s":2,"citySprawl":2,"ringUnits":{"inner":2,"middle":0,"outer":0}}},{"geometry":{"type":"Point","coordinates":[43.138,25.69]},"type":"Feature","id":"node/273488727","properties":{"name":"Gorna Oryahovitsa","is_in":"България","country":"Bulgaria","region":"The Balkans","wealth":1,"population":50000,"neighborhoodDensity":2,"city3s":0,"city4s":0,"city5s":2,"citySprawl":1,"ringUnits":{"inner":2,"middle":0,"outer":0}}},{"geometry":{"type":"Point","coordinates":[48.938,24.73]},"type":"Feature","id":"node/268459612","properties":{"name":"Ivano-Frankivsk","wealth":4,"population":89749,"neighborhoodDensity":3,"city3s":0,"city4s":0,"city5s":3,"citySprawl":2,"ringUnits":{"inner":3,"middle":0,"outer":0}}},{"geometry":{"type":"Point","coordinates":[52.388,4.91]},"type":"Feature","id":"node/268396336","properties":{"name":"Amsterdam","is_in":"The Netherlands","country":"The Netherlands","region":"Low Countries","wealth":4,"population":218561,"neighborhoodDensity":2,"city3s":1,"city4s":1,"city5s":2,"citySprawl":2,"ringUnits":{"inner":4,"middle":0,"outer":0}}},{"geometry":{"type":"Point","coordinates":[48.688,26.59]},"type":"Feature","id":"node/268081010","properties":{"name":"Kamianets-Podilskyi","wealth":2,"population":50431,"neighborhoodDensity":2,"city3s":0,"city4s":0,"city5s":2,"citySprawl":3,"ringUnits":{"inner":2,"middle":0,"outer":0}}},{"geometry":{"type":"Point","coordinates":[36.138,-5.43]},"type":"Feature","id":"node/267816660","properties":{"name":"Algeciras","is_in":"Spain","ele":"19","country":"Spain","region":"Iberian Peninsula","wealth":3,"population":55315,"neighborhoodDensity":3,"city3s":0,"city4s":0,"city5s":2,"citySprawl":1,"ringUnits":{"inner":2,"middle":0,"outer":0}}},{"geometry":{"type":"Point","coordinates":[41.663,-0.87]},